City_ID,City,Lat,Lng,Max Temp,Humidity,Cloudiness,Wind Speed,Country,Date
0,margaret river,-33.95,115.0667,14.61,83,100,6.43,AU,1699819285
1,bilibino,68.0546,166.4372,-12.91,92,100,5.86,RU,1699819453
2,korla,41.7597,86.1469,5.15,76,1,1.39,CN,1699819453
3,laguna,38.421,-121.4238,22.32,41,0,2.06,US,1699819453
4,albany,42.6001,-73.9662,6.0,54,9,0.89,US,1699819266
5,beyneu,45.3167,55.2,6.69,60,8,6.57,KZ,1699819453
6,san patricio,28.017,-97.5169,16.97,95,100,4.54,US,1699819453
7,gustavsberg,59.3268,18.3898,3.9,95,100,5.35,SE,1699819454
8,whitehorse,60.7161,-135.0538,-1.57,86,100,4.63,CA,1699819454
9,avenal,36.0041,-120.129,19.87,19,83,2.4,US,1699819454
10,guantanamo,20.1444,-75.2092,32.76,56,43,4.55,CU,1699819454
11,yellowknife,62.456,-114.3525,-6.44,96,100,9.26,CA,1699819439
12,newnham,-41.3833,147.1333,8.51,87,6,3.09,AU,1699819455
13,waitangi,-43.9535,-176.5597,13.79,81,98,1.79,NZ,1699819455
14,port-aux-francais,-49.35,70.2167,5.76,97,100,11.69,TF,1699819455
15,west island,-12.1568,96.8225,25.99,89,75,3.6,CC,1699819457
16,kruisfontein,-34.0033,24.7314,11.93,89,0,3.14,ZA,1699819458
17,ilulissat,69.2167,-51.1,-9.99,57,75,1.03,GL,1699819458
18,edinburgh of the seven seas,-37.0676,-12.3116,14.16,82,6,8.59,SH,1699819458
19,puerto ayora,-0.7393,-90.3518,29.98,92,64,3.58,EC,1699819459
20,itoman,26.1247,127.6694,21.01,73,75,10.29,JP,1699819459
21,prince rupert,54.3161,-130.3201,6.83,70,100,6.17,CA,1699819459
22,blackmans bay,-43.0167,147.3167,10.07,74,8,0.89,AU,1699819459
23,olonkinbyen,70.9221,-8.7187,-3.32,67,93,1.64,SJ,1699819460
24,nizhnevartovsk,60.9344,76.5531,0.01,100,100,2.0,RU,1699819460
25,talcahuano,-36.7167,-73.1167,13.82,51,0,8.75,CL,1699819461
26,thompson,55.7435,-97.8558,-1.91,93,100,2.06,CA,1699819360
27,longyearbyen,78.2186,15.6401,-0.09,59,75,5.66,SJ,1699819461
28,bethel,41.3712,-73.414,7.34,55,0,2.57,US,1699819461
29,tolanaro,-25.0319,46.9987,22.04,78,0,8.23,MG,1699819461
30,pathein,16.7833,94.7333,24.24,93,94,2.01,MM,1699819461
31,adamstown,-25.066,-130.1015,22.74,82,100,8.04,PN,1699819462
32,haiku-pauwela,20.9219,-156.3051,27.32,62,11,7.15,US,1699819462
33,rawai,7.7797,98.3253,29.43,77,98,2.69,TH,1699819462
34,petropavlovsk-kamchatsky,53.0452,158.6483,-3.08,74,75,12.52,RU,1699819462
35,lebu,-37.6167,-73.65,11.16,57,3,8.29,CL,1699819334
36,inongo,-1.95,18.2667,21.7,94,23,1.65,CD,1699819462
37,port mathurin,-19.6833,63.4167,25.2,81,0,2.3,MU,1699819463
38,kapuskasing,49.4169,-82.4331,1.05,86,100,7.2,CA,1699819389
39,college,64.8569,-147.8028,-7.03,73,100,2.06,US,1699819463
40,ust'-ilimsk,58.0006,102.6619,-10.31,87,77,0.89,RU,1699819463
41,launceston,-41.45,147.1667,8.78,87,6,3.09,AU,1699819463
42,brookings,44.3114,-96.7984,15.03,40,0,9.77,US,1699819173
43,charters towers,-20.1,146.2667,18.56,87,0,1.88,AU,1699819464
44,constitucion,-35.3333,-72.4167,13.94,53,0,9.04,CL,1699819464
45,puerto natales,-51.7236,-72.4875,13.25,47,75,9.77,CL,1699819464
46,wanganui,-39.9333,175.05,15.89,83,15,5.81,NZ,1699819464
47,jamestown,42.097,-79.2353,10.01,48,0,1.34,US,1699819353
48,novooleksiyivka,46.2269,34.6428,9.76,75,50,4.66,UA,1699819465
49,aras-asan,8.8908,126.3033,25.61,88,28,2.39,PH,1699819465
50,beloyarskiy,63.7119,66.6722,-7.78,98,65,2.24,RU,1699819465
51,grytviken,-54.2811,-36.5092,4.75,82,100,1.9,GS,1699819465
52,port elizabeth,-33.918,25.5701,16.16,80,0,4.63,ZA,1699819466
53,ta`u,-14.2336,-169.5144,27.6,81,14,5.45,AS,1699819466
54,st. john's,47.5649,-52.7093,0.93,85,100,3.6,CA,1699819466
55,wailua homesteads,22.0669,-159.378,27.24,82,75,8.23,US,1699819467
56,badger,64.8,-147.5333,-7.07,73,100,2.06,US,1699819467
57,hamilton,39.1834,-84.5333,15.4,45,0,3.6,US,1699818974
58,agat village,13.3886,144.6585,28.52,87,20,4.63,GU,1699819467
59,gadzhiyevo,69.2551,33.3362,-8.07,98,89,4.35,RU,1699819467
60,hermanus,-34.4187,19.2345,15.5,78,0,3.64,ZA,1699819467
61,atafu village,-8.5421,-172.5159,28.75,71,100,0.98,TK,1699819467
62,vila velha,-20.3297,-40.2925,29.97,78,0,8.75,BR,1699819462
63,pasil,17.3833,121.1333,15.5,92,34,0.2,PH,1699819468
64,enewetak,11.3474,162.3373,27.78,80,100,9.42,MH,1699819468
65,ribeira grande,38.5167,-28.7,19.87,94,75,9.26,PT,1699819468
66,iqaluit,63.7506,-68.5145,-17.15,77,20,7.72,CA,1699819397
67,happy valley-goose bay,53.3168,-60.3315,-0.83,64,75,5.14,CA,1699819468
68,astrakhan,46.3497,48.0408,11.93,66,21,5.0,RU,1699819469
69,puerto aysen,-45.4,-72.7,7.53,97,99,2.66,CL,1699819296
70,dzuunmod,48.2199,97.3744,-14.98,59,2,2.69,MN,1699819469
71,susuman,62.7833,148.1667,-33.56,97,100,0.31,RU,1699819469
72,huarmey,-10.0681,-78.1522,22.81,72,60,5.23,PE,1699819469
73,klyuchi,52.2667,79.1667,5.18,87,100,5.06,RU,1699819469
74,beberibe,-4.1797,-38.1306,27.21,67,2,5.15,BR,1699819470
75,mount isa,-20.7333,139.5,19.87,88,5,0.0,AU,1699819470
76,nuuk,64.1835,-51.7216,-5.66,73,20,1.03,GL,1699819470
77,simdega,22.6167,84.5167,19.51,73,49,3.06,IN,1699819470
78,namibe,-15.1961,12.1522,21.96,76,100,1.63,AO,1699819470
79,udachny,66.4167,112.4,-13.64,84,100,2.76,RU,1699819428
80,salalah,17.0151,54.0924,26.05,69,0,0.51,OM,1699819471
81,tiksi,71.6872,128.8694,-15.58,90,100,7.28,RU,1699819471
82,bredasdorp,-34.5322,20.0403,14.1,80,0,1.11,ZA,1699819471
83,bardai,11.65,7.2333,24.51,22,1,3.29,NG,1699819471
84,veydelevka,50.1521,38.4492,8.44,82,100,10.34,RU,1699819471
85,pyin oo lwin,22.0333,96.4667,16.71,94,36,0.83,MM,1699819472
86,castillos,-34.1667,-53.8333,18.69,73,100,3.33,UY,1699819472
87,tazacorte,28.629,-17.9293,22.54,91,40,3.6,ES,1699819472
88,puerto armuelles,8.2833,-82.8667,30.99,84,100,3.13,PA,1699819309
89,veinticinco de mayo,-35.4323,-60.1727,18.88,34,59,2.24,AR,1699819472
90,stanley,54.868,-1.6985,6.54,94,75,3.6,GB,1699819472
91,kirakira,-10.4544,161.9205,25.89,84,100,1.93,SB,1699819473
92,sao joao da barra,-21.6403,-41.0511,34.05,81,54,5.48,BR,1699819473
93,new norfolk,-42.7826,147.0587,10.72,78,16,1.68,AU,1699819473
94,luis correia,-2.8792,-41.6669,31.0,66,0,8.75,BR,1699819473
95,tateyama,34.9833,139.8667,10.61,93,75,4.12,JP,1699819473
96,hami,42.8,93.45,3.16,29,100,1.4,CN,1699819473
97,mogoytuy,51.2833,114.9167,-14.15,94,5,1.47,RU,1699819474
98,papatowai,-46.5619,169.4708,12.12,91,100,1.99,NZ,1699819474
99,richards bay,-28.783,32.0377,20.21,80,100,5.41,ZA,1699819474
100,kone,-21.0595,164.8658,22.07,63,18,2.05,NC,1699819474
101,bin yauri,10.7823,4.8114,27.61,28,7,0.83,NG,1699819474
102,belyy yar,53.6039,91.3903,-11.06,92,100,1.0,RU,1699819474
103,filiatra,37.15,21.5833,19.27,79,43,3.51,GR,1699819474
104,island harbour,50.724,-1.2758,11.68,93,100,1.34,GB,1699819475
105,port saint john's,-31.6229,29.5448,18.5,68,74,4.75,ZA,1699819475
106,cabo san lucas,22.8909,-109.9124,30.34,60,23,2.24,MX,1699819202
107,sandnessjoen,66.0217,12.6316,1.06,55,0,2.06,NO,1699819475
108,callao,-12.0667,-77.15,23.16,68,40,4.63,PE,1699819475
109,constantia,44.1833,28.65,5.38,44,97,4.71,RO,1699819291
110,newman,37.3138,-121.0208,22.25,28,75,3.87,US,1699819209
111,mount gambier,-37.8333,140.7667,7.73,94,47,0.97,AU,1699819476
112,fale old settlement,-9.3852,-171.2468,28.66,72,71,0.97,TK,1699819476
113,punta arenas,-53.15,-70.9167,13.06,44,75,15.43,CL,1699819222
114,georgetown,5.4112,100.3354,27.23,92,20,1.54,MY,1699819319
115,schonungen,50.0501,10.3081,6.11,86,100,1.17,DE,1699819476
116,kyren,51.6828,102.1408,-6.7,70,47,1.34,RU,1699819476
117,isafjordur,66.0755,-23.124,2.27,80,100,2.18,IS,1699819476
118,kushima,31.4583,131.2333,9.33,70,22,4.35,JP,1699819477
119,khatima,28.9167,79.9667,17.45,63,0,1.65,IN,1699819477
120,lihue,21.9789,-159.3672,27.58,78,75,8.23,US,1699819477
121,kodiak,57.79,-152.4072,1.51,67,100,1.99,US,1699819219
122,tanjung pinang,0.9167,104.45,26.02,75,79,1.81,ID,1699819477
123,rio grande,-32.035,-52.0986,17.06,89,100,2.72,BR,1699819477
124,vorgashor,67.5833,63.95,-9.07,94,43,5.3,RU,1699819478
125,nassau village-ratliff,30.5111,-81.8093,17.21,84,100,3.09,US,1699819478
126,enshi,30.3,109.4833,7.35,96,100,0.36,CN,1699819478
127,ust-nera,64.5667,143.2,-24.47,99,100,1.02,RU,1699819478
128,yeppoon,-23.1333,150.7333,17.88,65,3,3.68,AU,1699819479
129,anadyr,64.75,177.4833,-0.72,92,20,7.0,RU,1699819479
130,burley,42.5357,-113.7928,16.28,30,0,1.54,US,1699819421
131,port alfred,-33.5906,26.891,15.1,85,7,0.89,ZA,1699819480
132,midoun,33.8081,10.9923,19.92,41,2,2.53,TN,1699819481
133,el granada,37.5027,-122.4694,24.37,60,0,3.6,US,1699819481
134,tura,25.5198,90.2201,18.17,86,0,1.83,IN,1699819481
135,dudinka,69.4058,86.1778,-0.74,98,100,7.6,RU,1699819482
136,qaqortoq,60.7167,-46.0333,-6.52,84,4,0.49,GL,1699819482
137,avarua,-21.2078,-159.775,23.03,64,75,3.09,CK,1699819482
138,thinadhoo,0.5333,72.9333,27.41,76,92,1.44,MV,1699819482
139,hirara,24.8,125.2833,21.92,88,75,8.75,JP,1699819483
140,rikaze,29.25,88.8833,-0.94,22,0,1.83,CN,1699819483
141,nova xavantina,-14.6667,-52.35,36.57,24,83,3.45,BR,1699819302
142,ushuaia,-54.8,-68.3,13.81,41,0,5.14,AR,1699819478
143,fortuna,40.5982,-124.1573,16.63,79,0,0.45,US,1699819483
144,keflavik,64.0049,-22.5624,4.24,70,0,8.75,IS,1699819483
145,aykhal,66.0,111.5,-11.59,84,100,3.58,RU,1699819483
146,hegang,47.4,130.3667,-11.1,84,33,3.21,CN,1699819484
147,vadso,70.0744,29.7487,-3.91,86,0,7.2,NO,1699819484
148,dvurechensk,56.5982,61.0953,2.05,88,22,2.21,RU,1699819484
149,usinsk,65.9939,57.5281,-14.96,100,44,2.24,RU,1699819484
150,masterton,-40.9597,175.6575,13.82,91,100,4.57,NZ,1699819263
151,naantali,60.4674,22.0243,1.88,98,100,3.09,FI,1699819484
152,necochea,-38.5473,-58.7368,13.33,43,99,7.09,AR,1699819484
153,salem,11.65,78.1667,21.15,87,100,1.84,IN,1699819260
154,shangmei,27.7428,111.2956,6.62,85,100,2.19,CN,1699819485
155,hawaiian paradise park,19.5933,-154.9731,27.73,74,100,2.06,US,1699819485
156,lajinha,-20.1514,-41.6228,31.22,49,92,0.99,BR,1699819485
157,lompoc,34.6391,-120.4579,29.88,19,0,4.63,US,1699819485
158,tamiahua,21.2667,-97.45,20.94,85,100,6.11,MX,1699819485
159,matadi,-5.8167,13.45,26.63,83,100,0.73,CD,1699819486
160,la passe,45.5549,-0.8967,16.13,89,100,5.84,FR,1699819486
161,afaahiti,-17.75,-149.2833,28.93,82,22,4.07,PF,1699819486
162,hadibu,12.65,54.0333,26.9,82,54,5.94,YE,1699819486
163,flying fish cove,-10.4217,105.6791,24.82,88,100,4.63,CX,1699819486
164,annau,37.8876,58.516,10.72,76,0,3.09,TM,1699819486
165,invercargill,-46.4,168.35,11.68,96,98,0.45,NZ,1699819366
166,victoria de durango,24.0333,-104.6667,11.16,95,100,0.45,MX,1699819320
167,benguela,-12.5763,13.4055,26.44,77,99,0.1,AO,1699819487
168,chonchi,-42.6128,-73.8092,11.73,52,90,0.71,CL,1699819487
169,phan thiet,10.9333,108.1,24.12,89,19,1.65,VN,1699819487
170,banda aceh,5.5577,95.3222,26.53,80,100,2.74,ID,1699819487
171,antalaha,-14.9003,50.2788,23.02,84,52,3.28,MG,1699819487
172,clisson,47.0871,-1.2829,15.33,94,100,6.03,FR,1699819488
173,arraial do cabo,-22.9661,-42.0278,29.98,74,0,5.14,BR,1699819488
174,manosque,43.8288,5.7869,10.31,78,100,3.51,FR,1699819488
175,penzance,50.1186,-5.5371,13.38,92,100,6.99,GB,1699819488
176,aasiaat,68.7098,-52.8699,-13.94,84,91,2.95,GL,1699819488
177,murzuq,25.9155,13.9184,21.84,26,0,3.72,LY,1699819488
178,tralee,52.2704,-9.7026,10.08,97,100,3.47,IE,1699819488
179,ahar,38.4774,47.0699,12.46,46,95,2.9,IR,1699819489
180,kentville,45.0835,-64.4988,5.22,68,74,3.6,CA,1699819423
181,palmer,42.1584,-72.3287,6.24,49,4,0.45,US,1699819489
182,pisco,-13.7,-76.2167,23.03,73,0,3.09,PE,1699819489
183,taulaga,-11.0553,-171.0883,28.34,76,38,3.02,AS,1699819327
184,maldon,51.7311,0.6746,9.52,92,75,1.54,GB,1699819489
185,ahaus,52.0667,7.0,6.92,87,100,2.7,DE,1699819490
186,abqaiq,25.9371,49.6776,24.75,57,22,2.55,SA,1699819490
187,cambria,35.5641,-121.0808,25.43,55,56,1.79,US,1699819490
188,sitka,57.0531,-135.33,5.69,80,33,2.22,US,1699819453
189,dalandzadgad,43.5708,104.425,-3.2,19,99,1.84,MN,1699819490
190,gizo,-8.103,156.8419,27.39,77,100,5.13,SB,1699819490
191,san jose del cabo,23.0589,-109.6977,30.33,52,20,3.09,MX,1699819491
192,natal,-5.795,-35.2094,29.12,65,20,8.23,BR,1699819343
193,kuhmo,64.1333,29.5167,-4.47,88,100,5.23,FI,1699819491
194,queenstown,-31.8976,26.8753,10.77,76,0,1.93,ZA,1699819233
195,mlyniv,50.509,25.6168,5.65,80,100,6.95,UA,1699819491
196,geraldton,-28.7667,114.6,18.23,77,0,3.09,AU,1699819491
197,bat khela,34.6167,71.9714,15.18,43,0,2.05,PK,1699819491
198,griffith,41.5284,-87.4237,15.7,39,0,6.17,US,1699819492
199,kingston,17.997,-76.7936,33.53,65,20,10.29,JM,1699819216
200,acapulco de juarez,16.8634,-99.8901,30.61,66,8,3.68,MX,1699819338
201,rongelap,11.1635,166.8941,27.54,83,100,8.78,MH,1699819492
202,bac lieu,9.285,105.7244,26.63,87,99,6.35,VN,1699819492
203,lucapa,-8.4192,20.7447,18.43,95,100,0.66,AO,1699819492
204,vila franca do campo,37.7167,-25.4333,18.23,95,100,7.91,PT,1699819492
205,kodinsk,58.6881,99.1844,-9.76,96,49,1.64,RU,1699819493
206,vilhena,-12.7406,-60.1458,27.12,78,75,0.51,BR,1699819493
207,odense,55.3959,10.3883,6.01,88,37,1.78,DK,1699819493
208,vung tau,10.346,107.0843,26.86,84,87,6.8,VN,1699819493
209,hoima,1.4356,31.3436,19.3,88,22,0.88,UG,1699819493
210,la ronge,55.1001,-105.2842,3.14,60,75,7.72,CA,1699819493
211,banjar,-8.19,114.9675,25.02,90,6,2.31,ID,1699819493
212,borkum,53.5809,6.6915,7.97,79,5,5.71,DE,1699819494
213,abdulino,53.7,53.6667,2.07,82,100,5.42,RU,1699819494
214,karratha,-20.7377,116.8463,21.98,62,5,6.54,AU,1699819494
215,cururupu,-1.8283,-44.8683,28.74,59,86,2.93,BR,1699819494
216,sao bento do sul,-26.2503,-49.3786,29.0,56,86,0.76,BR,1699819494
217,marsh harbour,26.5412,-77.0636,26.27,63,96,3.72,BS,1699819494
218,yokadouma,3.5167,15.05,21.7,98,54,0.73,CM,1699819494
219,kibuye,-2.0597,29.3482,18.94,84,96,1.28,RW,1699819495
220,salekhard,66.53,66.6019,-13.71,92,11,3.4,RU,1699819356
221,port isabel,26.0734,-97.2086,19.02,91,100,6.17,US,1699819495
222,vernon,50.2581,-119.2691,6.83,57,100,3.6,CA,1699819202
223,voskresenskoye,56.8381,45.4317,4.35,91,100,5.98,RU,1699819495
224,tsiombe,-25.3,45.4833,21.96,74,0,1.42,MG,1699819495
225,ocean shores,46.9737,-124.1563,11.08,92,100,4.12,US,1699819495
226,dauphin,51.1494,-100.0502,4.08,75,0,8.75,CA,1699819319
227,cedeira,43.6797,-8.0209,18.32,77,79,9.61,ES,1699819496
228,ormond-by-the-sea,29.3491,-81.0665,21.01,95,100,5.66,US,1699819496
229,savanna-la-mar,18.219,-78.1332,30.97,76,47,1.81,JM,1699819496
230,coquimbo,-29.9533,-71.3436,18.85,59,20,6.69,CL,1699819203
231,juneau,58.3019,-134.4197,3.56,100,44,2.17,US,1699819423
232,tamandare,-8.7597,-35.1047,26.02,68,0,3.32,BR,1699819366
233,saipan,15.1355,145.701,28.39,78,20,5.66,MP,1699819496
234,pogoanele,44.9167,27.0,8.22,50,96,2.14,RO,1699819497
235,thunder bay,48.4001,-89.3168,6.99,81,100,2.06,CA,1699819268
236,buka,40.8108,69.1986,8.1,52,4,3.22,UZ,1699819497
237,bojnurd,37.4747,57.329,5.97,93,0,1.03,IR,1699819497
238,pierre,44.3683,-100.351,16.59,32,0,8.05,US,1699819388
239,port lincoln,-34.7333,135.8667,12.85,83,77,5.2,AU,1699819497
240,sinazongwe,-17.2614,27.4618,27.58,42,12,1.09,ZM,1699819497
241,vanimo,-2.6741,141.3028,25.19,90,97,2.04,PG,1699819498
242,yeraliyev,43.2,51.65,13.18,40,14,10.59,KZ,1699819498
243,tofol,5.3248,163.0078,27.09,73,97,9.89,FM,1699819498
244,broome,42.2506,-75.833,4.83,70,100,3.6,US,1699819498
245,tadmur,34.5608,38.2805,18.7,54,99,0.38,SY,1699819498
246,alesund,62.4723,6.1549,3.52,71,0,4.12,NO,1699819498
247,evergreen,39.6333,-105.3172,16.6,18,0,1.79,US,1699819499
248,palikir - national government center,6.9248,158.1611,28.04,74,96,4.2,FM,1699819499
249,nurota,40.5614,65.6886,6.43,41,9,3.0,UZ,1699819499
250,jashpurnagar,22.9,84.15,16.49,82,78,2.47,IN,1699819499
251,abeche,13.8292,20.8324,30.06,22,53,2.55,TD,1699819499
252,ljusdal,61.8288,16.0913,-2.67,96,100,3.3,SE,1699819499
253,zhezqazghan,47.7833,67.7667,4.13,87,92,2.05,KZ,1699819499
254,tagiura,32.8817,13.3506,21.37,55,2,0.45,LY,1699819500
255,la quiaca,-22.1024,-65.593,23.4,11,58,6.91,AR,1699819500
256,hithadhoo,-0.6,73.0833,27.14,81,81,2.44,MV,1699819500
257,khorixas,-20.3667,14.9667,25.63,19,10,3.36,NA,1699819500
258,tshabong,-26.05,22.45,25.79,9,0,4.83,BW,1699819500
259,doka,13.5167,35.7667,28.07,37,1,3.32,SD,1699819500
260,tocopilla,-22.092,-70.1979,21.43,66,21,6.33,CL,1699819277
261,jambi city,-1.6,103.6167,23.57,96,42,0.37,ID,1699819501
262,armacao de buzios,-22.7469,-41.8817,30.09,61,100,1.68,BR,1699819363
263,grajau,-5.8194,-46.1386,37.66,23,7,2.66,BR,1699819501
264,alice springs,-23.7,133.8833,22.75,68,59,3.6,AU,1699819501
265,antofagasta,-23.65,-70.4,19.6,67,13,5.8,CL,1699819501
266,tazovsky,67.4667,78.7,-4.94,95,100,5.98,RU,1699819502
267,byron bay,-28.65,153.6167,21.51,81,5,5.85,AU,1699819415
268,as sulayyil,20.4607,45.5779,22.14,39,43,4.07,SA,1699819502
269,warka,51.7843,21.1909,6.14,78,100,5.15,PL,1699819503
270,prienai,54.6333,23.95,6.15,89,100,5.01,LT,1699819504
271,vodnyy,63.5046,53.4095,-6.99,99,71,1.18,RU,1699819504
272,shizunai-furukawacho,42.3339,142.3669,1.84,64,6,3.55,JP,1699819505
273,zeya,53.75,127.2667,-3.62,42,11,4.22,RU,1699819505
274,stiens,53.2623,5.7577,7.99,95,100,1.54,NL,1699819505
275,ciutadella,40.0011,3.8414,18.45,75,100,5.15,ES,1699819505
276,al ghayzah,16.2079,52.176,27.1,67,0,2.71,YE,1699819506
277,ancud,-41.8697,-73.8203,9.78,52,40,4.83,CL,1699819360
278,puerto san jose,13.9256,-90.8244,30.35,70,3,3.13,GT,1699819506
279,santa marta,11.2408,-74.199,33.03,67,20,5.36,CO,1699819243
280,susanville,40.4163,-120.653,12.12,65,0,0.0,US,1699819507
281,naze,28.3667,129.4833,16.51,70,53,7.42,JP,1699819507
282,sisimiut,66.9395,-53.6735,-7.91,83,90,4.22,GL,1699819507
283,arish,31.1316,33.7984,23.1,88,40,2.06,EG,1699819507
284,ambikapur,23.1167,83.2,16.48,78,100,1.12,IN,1699819508
285,chimoio,-19.1164,33.4833,22.92,73,0,1.15,MZ,1699819508
286,talnakh,69.4865,88.3972,-2.66,95,100,4.97,RU,1699819508
287,camarinas,43.1311,-9.1817,19.54,96,77,10.65,ES,1699819508
288,mount pearl,47.5166,-52.7813,0.47,85,100,3.6,CA,1699819509
289,fort mcmurray,56.7268,-111.381,2.73,69,0,5.66,CA,1699819209
290,port macquarie,-31.4333,152.9167,21.05,86,99,7.55,AU,1699819509
291,quibala,-10.7337,14.98,17.49,94,99,0.5,AO,1699819510
292,gamba,-2.65,10.0,25.44,85,100,1.77,GA,1699819510
293,den burg,53.0542,4.7972,7.99,94,100,4.63,NL,1699819510
294,qashyr,53.0675,76.1036,4.83,94,100,4.56,KZ,1699819510
295,cova figueira,14.8905,-24.2934,23.89,66,4,4.56,CV,1699819511
296,muravlenko,63.7898,74.523,-4.01,95,100,6.87,RU,1699819511
297,kailua-kona,19.6406,-155.9956,27.93,75,0,4.12,US,1699819511
298,barra de santo antonio,-9.4047,-35.5072,27.6,67,0,4.4,BR,1699819511
299,sinabang,2.4803,96.3801,25.89,87,100,2.27,ID,1699819512
300,ixtapa,20.7,-105.2,30.57,70,75,4.63,MX,1699819512
301,cidreira,-30.1811,-50.2056,19.71,96,100,4.35,BR,1699819372
302,soata,6.3337,-72.6828,22.07,72,84,0.58,CO,1699819512
303,zambezi,-13.5432,23.1047,19.89,86,100,2.51,ZM,1699819513
304,weno,7.4515,151.8468,24.97,94,100,0.0,FM,1699819513
305,mejit,10.2753,170.8646,27.99,81,74,8.21,MH,1699819513
306,east london,-33.0153,27.9116,16.27,71,1,5.42,ZA,1699819513
307,iskateley,67.6803,53.1512,-8.32,94,16,2.68,RU,1699819513
308,baotou,40.6522,109.8222,-2.64,31,100,2.17,CN,1699819514
309,kurchatov,51.6601,35.6521,8.56,95,100,9.63,RU,1699819514
310,luderitz,-26.6481,15.1594,19.08,56,0,9.33,NA,1699819515
311,khovd,48.0056,91.6419,-5.72,93,94,0.2,MN,1699819515
312,nova sintra,14.8667,-24.7167,23.46,68,29,6.37,CV,1699819516
313,paracuru,-3.41,-39.0306,27.84,68,1,6.24,BR,1699819516
314,igarka,67.4667,86.5833,-0.74,97,100,6.41,RU,1699819516
315,turabah,21.2141,41.6331,22.77,38,99,5.09,SA,1699819304
316,kharp,66.8014,65.8081,-10.83,90,12,3.7,RU,1699819516
317,dongola,19.1667,30.4833,30.33,20,81,2.92,SD,1699819517
318,walvis bay,-22.9575,14.5053,17.53,72,10,3.09,NA,1699819517
319,minas de marcona,-15.2119,-75.1103,16.57,82,85,6.97,PE,1699819517
320,utrik,11.2278,169.8474,28.06,80,100,8.22,MH,1699819517
321,mossel bay,-34.1831,22.146,15.96,74,0,0.63,ZA,1699819518
322,oum hadjer,13.2954,19.6966,30.88,21,87,3.76,TD,1699819517
323,grand gaube,-20.0064,57.6608,22.43,74,2,0.89,MU,1699819518
324,recreo,-29.2818,-65.061,26.45,32,100,4.08,AR,1699819518
325,zlatograd,41.3833,25.1,11.13,73,100,0.73,BG,1699819519
326,acarau,-2.8856,-40.12,28.15,65,0,7.69,BR,1699819519
327,port moresby,-9.4431,147.1797,21.68,94,75,2.57,PG,1699819519
328,dunhua,43.3725,128.2425,-11.39,84,39,4.11,CN,1699819520
329,guerrero negro,27.9769,-114.0611,25.78,21,0,2.05,MX,1699819520
330,nagqu,31.5,92.0,-11.67,46,0,1.33,CN,1699819520
331,nar'yan-mar,67.6713,53.087,-8.27,94,16,2.68,RU,1699819521
332,westport,41.1415,-73.3579,7.87,53,0,4.12,US,1699819521
333,rexburg,43.826,-111.7897,13.08,32,0,1.54,US,1699819521
334,qulsary,46.9531,54.0198,5.9,60,68,7.04,KZ,1699819521
335,morondava,-20.2833,44.2833,24.94,76,0,2.94,MG,1699819522
336,carutapera,-1.195,-46.02,28.36,66,11,4.23,BR,1699819522
337,usogorsk,63.4106,48.6872,-6.3,97,96,3.58,RU,1699819522
338,remire-montjoly,4.9167,-52.2667,28.33,75,45,4.19,GF,1699819522
339,kwang binh,17.4833,106.6,25.33,89,51,5.27,VN,1699819522
340,kamiiso,41.8167,140.65,0.18,86,22,2.2,JP,1699819523
341,sabang,5.8933,95.3214,27.87,73,100,3.56,ID,1699819523
342,big bend,-26.8167,31.9333,19.06,72,100,3.87,SZ,1699819371
343,pangody,65.85,74.4859,-4.56,96,100,5.35,RU,1699819524
344,laojunmiao,39.8333,97.7333,-2.27,46,0,0.49,CN,1699819524
345,corumba,-19.0092,-57.6533,39.95,29,40,7.2,BR,1699819431
346,lata,40.1629,-8.3327,17.82,96,99,1.57,PT,1699819524
347,mary,37.0,62.5,12.28,36,0,4.38,TM,1699819524
348,kalmunai,7.4167,81.8167,24.8,90,100,3.44,LK,1699819525
349,salahonda,2.1019,-78.7217,26.58,84,27,7.06,CO,1699819525
350,vilyuchinsk,52.9306,158.4028,-2.26,80,64,3.47,RU,1699819525
351,kalifornsky,60.4183,-151.29,-5.89,92,0,2.57,US,1699819527
352,pokhara,28.2333,83.9833,15.37,58,0,2.39,NP,1699819527
353,majene,-3.5403,118.9707,26.18,82,81,1.74,ID,1699819527
354,papao,-17.75,-149.55,29.82,78,41,1.1,PF,1699819528
355,tidjikja,18.5564,-11.4271,27.25,12,7,3.84,MR,1699819528
356,soio,-6.1349,12.3689,26.21,83,100,1.73,AO,1699819528
357,beykonak,36.3257,30.303,20.54,78,21,1.19,TR,1699819529
358,san martin,-33.081,-68.4681,18.3,17,0,7.75,AR,1699819529
359,hobyo,5.3505,48.5268,27.08,83,100,5.13,SO,1699819529
360,praia da vitoria,38.7333,-27.0667,21.14,83,40,7.73,PT,1699819529
361,twistringen,52.8,8.65,5.5,92,54,3.57,DE,1699819530
362,ulsteinvik,62.3432,5.8487,4.06,75,0,3.13,NO,1699819530
363,howard springs,-12.497,131.047,26.95,82,84,1.45,AU,1699819530
364,bandon,51.7469,-8.7425,12.77,97,100,6.15,IE,1699819530
365,phan rang-thap cham,11.5667,108.9833,24.27,84,33,2.47,VN,1699819530
366,magdagachi,53.45,125.8,-5.44,53,36,4.29,RU,1699819531
367,preston,53.7667,-2.7167,8.61,95,96,4.54,GB,1699819513
368,kapa'a,22.0752,-159.319,27.99,84,40,3.13,US,1699819377
369,carbonear,47.7332,-53.2148,1.19,83,99,5.03,CA,1699819531
370,arfoud,31.4348,-4.2375,22.21,24,100,1.75,MA,1699819315
371,bom sucesso,-21.0331,-44.7581,34.23,20,16,1.35,BR,1699819349
372,sinanpasa,38.7444,30.2428,10.97,85,98,2.99,TR,1699819532
373,jinka,5.65,36.65,19.54,69,18,0.68,ET,1699819532
374,pacific grove,36.6177,-121.9166,23.01,64,0,4.02,US,1699819532
375,sri madhopur,27.4667,75.6,17.13,50,6,2.28,IN,1699819533
376,akureyri,65.6835,-18.0878,-6.04,93,0,1.03,IS,1699819533
377,dzhalagash,45.0833,64.6667,4.21,70,19,2.93,KZ,1699819533
378,bela,25.9333,81.9833,20.49,53,5,1.5,IN,1699819533
379,egilsstadir,65.2653,-14.3948,-2.05,93,75,4.12,IS,1699819533
380,yeed,4.55,43.0333,28.09,65,94,2.39,SO,1699819533
381,yuzhno-kurilsk,44.0306,145.8556,2.43,80,18,3.86,RU,1699819533
382,katsuura,35.1333,140.3,10.01,86,26,7.12,JP,1699819534
383,tuy hoa,13.0833,109.3,24.62,93,99,2.3,VN,1699819534
384,calvinia,-31.4707,19.776,17.66,25,0,2.14,ZA,1699819534
385,glen innes,-29.7333,151.7333,15.76,85,82,2.44,AU,1699819534
386,grand falls-windsor,48.9332,-55.6649,-0.83,74,32,1.34,CA,1699819534
387,george town,5.4112,100.3354,27.23,92,20,1.54,MY,1699819305
388,uvalde,29.3669,-99.767,15.63,89,100,1.54,US,1699819535
389,lorengau,-2.0226,147.2712,25.95,78,97,1.98,PG,1699819535
390,port augusta,-32.5,137.7667,15.39,47,100,3.81,AU,1699819535
391,al burayqah,30.4062,19.5739,22.5,73,0,5.32,LY,1699819535
392,zunyi,27.6867,106.9072,4.92,87,100,2.27,CN,1699819535
393,sturgis,41.7992,-85.4192,12.82,43,40,4.63,US,1699819382
394,nadi,-17.8,177.4167,26.0,83,75,3.6,FJ,1699819536
395,nabire,-3.3667,135.4833,23.84,86,100,2.01,ID,1699819536
396,barra,-11.0894,-43.1417,34.31,27,0,1.91,BR,1699819536
397,empalme,27.9667,-110.8167,31.31,26,0,3.28,MX,1699819370
398,red bluff,40.1785,-122.2358,18.25,42,0,0.0,US,1699819433
399,carnarvon,-24.8667,113.6333,20.46,84,19,2.99,AU,1699819537
400,prince george,53.9166,-122.753,0.69,89,100,2.06,CA,1699819452
401,jayapura,-2.5333,140.7,24.66,88,100,1.68,ID,1699819537
402,crane,31.3974,-102.3501,15.66,66,100,4.88,US,1699819537
403,olyokminsk,60.3736,120.4264,-13.15,97,98,1.43,RU,1699819537
404,turbat,26.0023,63.044,23.9,18,96,2.19,PK,1699819537
405,jieshi,22.8134,115.8257,18.78,75,79,5.24,CN,1699819538
406,kokuy,52.2037,117.5529,-10.77,91,24,1.31,RU,1699819538
407,isna,25.2934,32.554,26.01,33,95,2.99,EG,1699819538
408,touros,-5.1989,-35.4608,26.67,70,1,6.87,BR,1699819538
409,alofi,-19.0595,-169.9187,23.94,88,75,5.66,NU,1699819539
410,poxoreo,-15.8372,-54.3892,40.06,17,99,3.66,BR,1699819539
411,tadine,-21.55,167.8833,22.08,67,95,8.57,NC,1699819539
412,plaza huincul,-38.926,-69.2086,16.19,10,0,5.81,AR,1699819539
413,macau,22.2006,113.5461,20.89,78,40,9.26,MO,1699819290
414,crucecita,-28.95,-58.9833,28.77,75,36,8.97,AR,1699819539
415,nemuro,43.3236,145.575,3.53,63,67,4.78,JP,1699819540
416,saint-pierre,-21.3393,55.4781,20.82,78,0,1.54,RE,1699819540
417,jalapa,19.5333,-96.9167,17.31,95,100,2.6,MX,1699819387
418,aquidauana,-20.4711,-55.7872,43.1,16,27,4.29,BR,1699819540
419,santa ana,33.7456,-117.8678,30.54,9,0,2.06,US,1699819540
420,conduaga,8.862,117.4893,25.94,82,39,1.21,PH,1699819540
421,codrington,-38.2667,141.9667,9.93,80,51,2.4,AU,1699819540
422,zhumysker,49.3333,49.4,8.46,55,100,7.72,KZ,1699819541
423,lamar,33.6668,-95.5836,20.55,41,0,3.09,US,1699819541
424,uturoa,-16.7333,-151.4333,27.31,80,11,4.0,PF,1699819541
425,hefei,31.8639,117.2808,4.01,87,86,2.0,CN,1699819541
426,menongue,-14.6585,17.691,20.4,75,92,4.0,AO,1699819541
427,nizhneangarsk,55.7833,109.55,-6.67,76,72,0.45,RU,1699819542
428,rio preto da eva,-2.6994,-59.6997,34.83,43,97,1.02,BR,1699819542
429,san andres,12.5847,-81.7006,30.01,74,20,4.63,CO,1699819395
430,lijiang,26.8688,100.2207,4.91,75,0,1.95,CN,1699819542
431,altamont,42.2068,-121.7372,10.43,63,100,0.45,US,1699819278
432,borovskoy,53.8,64.15,4.46,95,100,2.42,KZ,1699819542
433,konarka,19.9,86.1167,22.22,72,97,3.4,IN,1699819543
434,kutum,14.2,24.6667,27.3,27,100,1.62,SD,1699819543
435,suva,-18.1416,178.4415,23.71,100,75,3.09,FJ,1699819367
436,taoudenni,22.6783,-3.9836,29.16,14,1,5.39,ML,1699819543
437,arno,60.1167,18.6333,3.77,97,100,4.96,SE,1699819543
438,nuku'alofa,-21.1333,-175.2,21.19,100,100,3.6,TO,1699819543
439,levuka,50.1834,-105.4011,6.84,54,63,7.35,CA,1699819543
440,umm al quwain city,25.5647,55.5552,27.01,41,53,2.65,AE,1699819544
441,bandarbeyla,9.4942,50.8122,27.12,83,53,7.04,SO,1699819544
442,olvera,36.9584,-5.2489,17.08,75,24,1.45,ES,1699819544
443,wamba,8.9333,8.6,26.38,53,6,0.97,NG,1699819544
444,alo,7.4178,6.7371,27.33,71,7,2.39,NG,1699819544
445,tabriz,38.08,46.2919,9.7,50,40,2.06,IR,1699819544
446,santa caterina villarmosa,37.5911,14.0363,16.69,96,11,2.03,IT,1699819545
447,labytnangi,66.6572,66.4183,-12.32,90,8,3.65,RU,1699819545
448,puerto deseado,-47.7503,-65.8938,10.06,45,63,8.44,AR,1699819334
449,mukalla,14.5425,49.1242,26.83,69,3,2.08,YE,1699819545
450,kafarati,10.383,11.0957,27.51,23,16,2.87,NG,1699819545
451,moussoro,13.6408,16.4901,30.35,16,39,4.81,TD,1699819545
452,pauini,-7.7136,-66.9764,34.47,45,47,0.58,BR,1699819545
453,cudillero,43.5622,-6.1459,16.62,76,99,2.88,ES,1699819546
454,lysekil,58.2743,11.4358,5.01,84,65,5.47,SE,1699819546
455,hasaki,35.7333,140.8333,7.38,85,88,10.78,JP,1699819546
456,orchard homes,46.8633,-114.0484,12.08,54,0,3.09,US,1699819546
457,teknaf,20.8624,92.3058,22.25,83,5,2.24,BD,1699819546
458,balqash,46.8481,74.995,4.0,79,85,6.49,KZ,1699819546
459,harper,4.375,-7.7169,26.23,87,56,3.31,LR,1699819546
460,murun-kuren,49.6342,100.1625,-9.49,54,10,0.87,MN,1699819366
461,olinda,-8.0089,-34.8553,27.85,61,40,3.6,BR,1699819547
462,sao mateus do maranhao,-4.0417,-44.475,38.11,21,0,2.09,BR,1699819547
463,gargalianoi,37.0667,21.6333,17.97,80,45,3.11,GR,1699819547
464,luena,-11.7833,19.9167,18.27,92,100,1.76,AO,1699819548
465,toliara,-23.35,43.6667,23.78,78,0,0.47,MG,1699819548
466,miracema do tocantins,-9.5618,-48.3967,39.06,19,1,3.18,BR,1699819548
467,mata-utu,-13.2816,-176.1745,28.65,75,41,7.13,WF,1699819548
468,progreso,21.2833,-89.6667,33.39,77,71,5.86,MX,1699819548
469,yugorsk,61.3133,63.3319,-2.28,97,94,2.2,RU,1699819549
470,los osos,35.3111,-120.8324,28.41,8,0,5.66,US,1699819550
471,marat,25.0701,45.4615,22.71,28,97,3.75,SA,1699819550
472,berriane,32.8265,3.7669,22.45,23,2,4.0,DZ,1699819551
473,xining,36.6167,101.7667,-2.6,73,2,0.99,CN,1699819551
474,misliyah,17.4599,42.5572,28.81,69,100,1.85,SA,1699819551
475,stettler,52.3168,-112.7186,8.75,42,3,1.54,CA,1699819551
476,sa'dah,16.9402,43.7639,17.74,48,53,4.48,YE,1699819552
477,goba,7.0167,39.9833,9.92,92,37,1.48,ET,1699819552
478,smithers,54.7804,-127.1743,-2.82,100,75,1.54,CA,1699819552
479,mariehamn,60.0973,19.9348,3.79,100,100,3.09,AX,1699819552
480,ryotsu-minato,38.0833,138.4333,8.01,64,93,4.76,JP,1699819552
481,andorra,42.5,1.5,12.65,73,100,0.94,AD,1699819553
482,selfoss,63.9331,-20.9971,3.36,70,100,6.93,IS,1699819553
483,kenai,60.5544,-151.2583,-6.03,100,0,2.06,US,1699819347
484,gundlupet,11.8,76.6833,18.13,87,97,1.05,IN,1699819553
485,santa ana de yacuma,-13.75,-65.4333,36.97,41,20,6.17,BO,1699819553
486,pointe-noire,-4.7761,11.8635,26.22,82,100,1.08,CG,1699819553
487,inirida,3.8653,-67.9239,27.58,84,99,1.87,CO,1699819554
488,koryazhma,61.3143,47.1691,-0.05,96,100,3.89,RU,1699819554
489,berbesti,44.9833,23.8833,4.99,57,100,0.48,RO,1699819554
490,fort bragg,35.139,-79.006,17.12,54,0,3.09,US,1699819554
491,fratesti,43.9667,25.9667,6.5,49,100,2.33,RO,1699819554
492,okulovka,58.4008,33.2908,4.36,96,100,5.25,RU,1699819554
493,mugumu,-1.85,34.7,17.52,88,83,0.8,TZ,1699819554
494,daru,-9.0763,143.2092,24.65,81,50,3.69,PG,1699819555
495,znamenskoye,57.1281,73.8282,0.24,93,99,1.38,RU,1699819555
496,lerwick,60.1545,-1.1494,8.0,79,17,5.3,GB,1699819555
497,hilo,19.7297,-155.09,27.93,67,100,2.06,US,1699819555
498,jhargram,22.45,86.9833,20.82,62,11,2.56,IN,1699819555
499,auki,-8.7676,160.7034,25.31,86,100,1.49,SB,1699819555
500,rabaul,-4.1967,152.1721,25.66,80,100,4.41,PG,1699819556
501,ola,59.5833,151.2833,-10.71,66,100,7.17,RU,1699819556
502,sagarejo,41.734,45.3315,7.24,44,10,1.25,GE,1699819556
503,vuktyl,63.8567,57.3094,-3.83,98,100,1.34,RU,1699819556
504,noumea,-22.2763,166.4572,23.33,99,92,8.39,NC,1699819211
505,shalkar,47.8288,59.6258,5.36,77,12,1.84,KZ,1699819556
506,shengli,37.4564,118.4856,0.68,43,2,3.06,CN,1699819556
507,port douglas,-16.4833,145.4667,22.57,81,50,3.35,AU,1699819557
508,jiagedaqi,50.4167,124.1167,-12.02,88,20,1.88,CN,1699819557
509,bantogon,6.5333,124.0333,25.31,83,9,1.75,PH,1699819557
510,balod,20.73,81.2047,19.54,68,19,0.7,IN,1699819557
511,adis zemen,12.1167,37.7833,16.53,64,100,1.35,ET,1699819557
512,la foa,-21.7108,165.8276,21.32,61,10,1.89,NC,1699819557
513,gainesville,29.6516,-82.3248,18.91,82,100,3.6,US,1699819556
514,san luis de la loma,17.2706,-100.8939,30.56,66,51,2.99,MX,1699819558
515,mapimi,25.8167,-103.85,15.2,80,100,3.45,MX,1699819558
516,penha,-26.7694,-48.6458,25.93,100,0,4.12,BR,1699819558
517,bontang,0.1333,117.5,25.7,86,85,0.95,ID,1699819558
518,severo-yeniseyskiy,60.3725,93.0408,-4.12,98,100,0.89,RU,1699819558
519,tromso,69.6496,18.957,-1.99,54,0,6.17,NO,1699819558
520,todos santos,23.45,-110.2167,28.5,67,8,3.05,MX,1699819559
521,luanda,-8.8368,13.2343,27.0,78,75,3.09,AO,1699819559
522,yakeshi,49.2833,120.7333,-19.22,100,95,1.66,CN,1699819559
523,wynyard,-41.0,145.7167,9.8,66,56,3.89,AU,1699819559
524,colonia,50.9333,6.95,7.2,86,0,3.09,DE,1699819452
525,kirensk,57.7853,108.1119,-10.58,91,91,1.34,RU,1699819559
526,plesetsk,62.708,40.2916,-3.15,83,97,4.97,RU,1699819559
527,malango,-2.9627,119.9001,19.14,97,100,0.89,ID,1699819560
528,tionk essil,12.7856,-16.5217,27.98,52,92,2.86,SN,1699819560
529,sur,22.5667,59.5289,25.79,55,100,1.47,OM,1699819560
530,nantucket,41.2835,-70.0995,7.08,61,40,4.12,US,1699819560
531,skjern,55.95,8.5,6.4,90,67,2.25,DK,1699819560
532,lospalos,-8.5186,127.0025,21.21,93,8,0.93,TL,1699819560
533,suwayr,30.1171,40.3893,22.52,30,100,4.4,SA,1699819560
534,zaozersk,69.4005,32.4476,-9.96,100,95,3.77,RU,1699819561
535,manzhouli,49.6,117.4333,-10.95,88,10,3.46,CN,1699819561
536,auce,56.4598,22.9017,4.46,94,91,3.19,LV,1699819561
537,kolokani,13.5728,-8.0339,27.48,13,27,3.87,ML,1699819561
538,bamboo flat,11.7,92.7167,25.05,94,75,1.03,IN,1699819561
539,santana,-0.0583,-51.1817,34.1,46,20,5.14,BR,1699819457
540,chibougamau,49.9168,-74.3659,-4.21,86,100,2.57,CA,1699819562
541,tokar,18.4254,37.729,29.26,67,48,4.38,SD,1699819562
542,glace bay,46.1969,-59.957,3.45,74,75,7.2,CA,1699819562
543,taroa,8.7058,171.2275,28.23,81,97,8.09,MH,1699819562
544,kununurra,-15.7667,128.7333,26.99,89,100,2.06,AU,1699819562
545,tan-tan,28.438,-11.1032,22.5,53,5,3.32,MA,1699819563
546,lalibela,12.0333,39.0333,15.76,64,81,3.57,ET,1699819563
547,boa vista,2.8197,-60.6733,34.99,41,40,6.69,BR,1699819563
548,polva,58.0603,27.0694,2.96,97,100,3.37,EE,1699819563
549,okhotsk,59.3833,143.3,-17.55,81,1,10.42,RU,1699819563
550,saint-philippe,-21.3585,55.7679,20.77,82,43,2.98,RE,1699819564
551,lazaro cardenas,17.9583,-102.2,30.88,63,22,3.18,MX,1699819564
552,manokwari,-0.8667,134.0833,25.7,79,100,2.37,ID,1699819564
553,surendranagar,22.7,71.6833,23.66,31,71,3.36,IN,1699819564
554,mahajanga,-15.7167,46.3167,29.01,74,20,3.6,MG,1699819564
555,bodaybo,57.8506,114.1933,-23.58,98,63,0.87,RU,1699819564
556,galveston,29.3669,-94.9669,19.54,92,100,4.12,US,1699819565
557,yei,4.095,30.6779,21.09,83,7,1.55,SS,1699819565
558,mirny,62.5353,113.9611,-14.87,84,100,3.13,RU,1699819318
559,luau,-10.7073,22.2247,19.15,91,97,2.12,AO,1699819565
560,lashkar gah,31.5938,64.3716,15.42,30,37,2.55,AF,1699819565
561,san jose del guaviare,2.5729,-72.6459,30.31,66,32,1.2,CO,1699819565
562,turpan,42.9333,89.1667,5.89,31,14,0.67,CN,1699819566
563,nova vicosa,-17.8919,-39.3719,26.94,71,29,8.1,BR,1699819380
564,mugia,43.1041,-9.2179,19.53,96,74,11.06,ES,1699819566
565,ayios konstandinos,38.6333,21.4,16.17,91,100,1.3,GR,1699819566
566,ed damer,17.5928,33.9592,32.79,23,80,3.22,SD,1699819566
567,yacuiba,-22.038,-63.6797,41.73,21,9,2.98,BO,1699819566
