City_ID,City,Lat,Lng,Max Temp,Humidity,Cloudiness,Wind Speed,Country,Date
0,la'ie,21.6477,-157.9253,84.16,74,19,8.99,US,1699838273
1,barcelos,41.5388,-8.6151,64.54,96,100,10.51,PT,1699838274
2,wadesboro,34.9682,-80.0767,51.57,76,0,0.0,US,1699838274
3,port-aux-francais,-49.35,70.2167,40.05,78,100,9.04,TF,1699838274
4,ushuaia,-54.8,-68.3,49.66,57,75,9.22,AR,1699838126
5,lompoc,34.6391,-120.4579,69.94,72,0,8.05,US,1699837566
6,qaqortoq,60.7167,-46.0333,17.42,89,24,1.28,GL,1699838274
7,invercargill,-46.4,168.35,53.02,93,100,7.0,NZ,1699838274
8,santa cruz,-17.8,-63.1667,87.26,55,15,6.91,BO,1699838140
9,cill airne,52.05,-9.5167,54.68,96,100,14.52,IE,1699838275
10,utrik,11.2278,169.8474,82.44,81,100,19.19,MH,1699838275
11,new norfolk,-42.7826,147.0587,67.71,38,50,7.29,AU,1699838275
12,matadi,-5.8167,13.45,77.92,89,100,2.04,CD,1699838275
13,nebraska city,40.6767,-95.8592,59.43,33,0,5.75,US,1699838275
14,nova sintra,14.8667,-24.7167,74.71,68,66,6.85,CV,1699838276
15,nadi,-17.8,177.4167,77.0,88,40,9.22,FJ,1699838276
16,karratha,-20.7377,116.8463,81.77,33,6,12.59,AU,1699838276
17,puerto natales,-51.7236,-72.4875,41.94,87,100,3.89,CL,1699838276
18,touros,-5.1989,-35.4608,77.65,79,3,12.24,BR,1699838276
19,udachny,66.4167,112.4,8.46,92,100,7.4,RU,1699838276
20,tizi-n-tleta,36.5457,4.0571,57.15,73,84,2.89,DZ,1699838277
21,anloga,5.7947,0.8973,81.66,81,8,9.6,GH,1699838277
22,sri dungargarh,28.0833,74.0167,63.99,50,4,6.49,IN,1699838277
23,gorey,52.6747,-6.2925,53.58,98,100,21.34,IE,1699838277
24,susuman,62.7833,148.1667,-20.69,97,89,0.85,RU,1699838277
25,holualoa,19.6228,-155.9522,78.64,79,40,9.22,US,1699838277
26,ust-nera,64.5667,143.2,-10.26,99,100,2.59,RU,1699838277
27,iquique,-20.2208,-70.1431,66.24,79,58,1.83,CL,1699838202
28,port blair,11.6667,92.75,75.24,94,100,2.3,IN,1699838278
29,rey bouba,8.6724,14.1786,76.78,67,100,2.86,CM,1699838278
30,hithadhoo,-0.6,73.0833,81.66,76,91,7.52,MV,1699838152
31,jerantut,3.936,102.3626,78.55,92,33,0.54,MY,1699838278
32,prudentopolis,-25.2131,-50.9778,73.27,75,97,0.65,BR,1699838278
33,bethel,41.3712,-73.414,35.49,71,0,0.0,US,1699838278
34,lebu,-37.6167,-73.65,48.27,66,0,14.88,CL,1699838278
35,grytviken,-54.2811,-36.5092,37.44,90,100,4.18,GS,1699838279
36,st. john's,47.5649,-52.7093,30.97,84,100,13.8,CA,1699838026
37,waitangi,-43.9535,-176.5597,54.7,88,100,19.26,NZ,1699838279
38,puerto deseado,-47.7503,-65.8938,46.24,61,0,16.87,AR,1699838279
39,aasiaat,68.7098,-52.8699,5.95,84,17,2.75,GL,1699838279
40,cabo san lucas,22.8909,-109.9124,81.52,66,40,9.22,MX,1699838279
41,hanzhong,33.0728,107.0303,43.32,80,100,2.35,CN,1699838279
42,jamestown,42.097,-79.2353,37.04,72,0,5.75,US,1699838171
43,adamstown,-25.066,-130.1015,73.04,85,100,18.21,PN,1699838280
44,malindi,-3.2175,40.1191,78.35,84,90,4.16,KE,1699838280
45,tsiombe,-25.3,45.4833,70.66,60,0,5.95,MG,1699838280
46,albany,42.6001,-73.9662,30.67,78,1,2.48,US,1699838280
47,blackmans bay,-43.0167,147.3167,66.52,44,4,1.99,AU,1699838280
48,tromso,69.6496,18.957,26.62,63,18,11.5,NO,1699838280
49,bardai,11.65,7.2333,71.69,25,48,8.28,NG,1699838281
50,east london,-33.0153,27.9116,58.24,68,42,9.24,ZA,1699838281
51,garoowe,8.4054,48.4845,75.97,80,49,10.38,SO,1699838281
52,iqaluit,63.7506,-68.5145,-0.31,77,20,5.75,CA,1699838281
53,wer,27.0,77.1667,63.23,56,8,0.94,IN,1699838281
54,palmerston north,-40.35,175.6167,71.06,67,12,5.99,NZ,1699838281
55,thompson,55.7435,-97.8558,28.56,100,100,0.0,CA,1699838037
56,basco,20.4487,121.9702,79.45,78,87,30.82,PH,1699838282
57,vorgashor,67.5833,63.95,10.53,98,78,7.63,RU,1699838282
58,mucuri,-18.0864,-39.5508,77.0,79,2,16.22,BR,1699838282
59,nizhniy odes,63.6445,54.856,23.63,87,100,5.66,RU,1699838282
60,bahia blanca,-38.7196,-62.2724,53.94,26,0,0.74,AR,1699838118
61,bilibino,68.0546,166.4372,8.1,96,100,4.97,RU,1699838283
62,puerto penasco,31.3167,-113.5333,74.91,39,0,4.0,MX,1699838283
63,fale old settlement,-9.3852,-171.2468,84.42,70,86,4.18,TK,1699838283
64,mahanoro,-19.9,48.8,70.03,86,62,3.62,MG,1699838284
65,rongelap,11.1635,166.8941,82.29,82,100,19.82,MH,1699838285
66,lamu,-2.2717,40.902,77.22,86,97,4.76,KE,1699838285
67,geraldton,-28.7667,114.6,77.41,53,0,5.75,AU,1699838285
68,papatowai,-46.5619,169.4708,54.79,96,100,4.85,NZ,1699838286
69,conception bay south,47.4999,-52.9981,30.74,82,14,12.55,CA,1699838035
70,kirakira,-10.4544,161.9205,80.76,81,100,2.57,SB,1699838286
71,karaton,-6.3424,106.1045,81.73,77,85,1.43,ID,1699838286
72,olyokminsk,60.3736,120.4264,11.1,93,100,3.22,RU,1699838287
73,port mathurin,-19.6833,63.4167,77.43,78,0,4.68,MU,1699838287
74,margate,51.3813,1.3862,51.31,95,100,5.01,GB,1699837688
75,antalaha,-14.9003,50.2788,72.01,86,1,5.41,MG,1699838287
76,maintirano,-18.0667,44.0167,77.65,76,1,5.44,MG,1699838287
77,yellowknife,62.456,-114.3525,19.42,95,75,18.99,CA,1699838287
78,reggane,26.7158,0.1714,73.83,27,6,10.54,DZ,1699838288
79,tionk essil,12.7856,-16.5217,73.45,62,44,5.28,SN,1699838288
80,margaret river,-33.95,115.0667,66.49,67,86,13.6,AU,1699838288
81,ad dilam,23.9915,47.1627,72.01,52,97,4.85,SA,1699838288
82,searcy,35.2506,-91.7363,55.36,69,0,0.0,US,1699838288
83,kandla,23.0333,70.2167,75.06,27,97,7.38,IN,1699838288
84,bokhan,53.153,103.7714,6.3,98,75,2.21,RU,1699838289
85,wailua homesteads,22.0669,-159.378,82.83,79,40,19.57,US,1699838289
86,miri,4.4148,114.0089,82.54,83,40,6.91,MY,1699838289
87,puerto ayora,-0.7393,-90.3518,76.55,91,54,5.01,EC,1699838289
88,edinburgh of the seven seas,-37.0676,-12.3116,57.47,83,8,22.12,SH,1699838289
89,afaahiti,-17.75,-149.2833,84.07,80,58,10.31,PF,1699838289
90,manadhoo,5.7667,73.3833,82.31,74,87,4.41,MV,1699838290
91,kloulklubed,7.0419,134.2556,79.3,75,100,13.69,PW,1699838290
92,holland,42.7875,-86.1089,51.85,55,75,10.36,US,1699838290
93,igarka,67.4667,86.5833,28.69,97,100,11.59,RU,1699838290
94,carrigaline,51.8117,-8.3986,55.15,100,100,23.02,IE,1699838290
95,bredasdorp,-34.5322,20.0403,55.18,88,39,0.6,ZA,1699838152
96,purwakarta,-6.5569,107.4433,80.38,70,42,0.74,ID,1699838291
97,nemuro,43.3236,145.575,40.68,50,33,10.31,JP,1699838291
98,matoury,4.8483,-52.3317,80.1,84,3,8.59,GF,1699838291
99,spring creek,40.7266,-115.5859,50.31,26,100,4.14,US,1699838291
100,isola di capo rizzuto,38.96,17.0933,62.19,72,0,10.96,IT,1699838291
101,noumea,-22.2763,166.4572,80.58,58,57,19.86,NC,1699838010
102,harstad,68.799,16.5293,29.16,57,2,11.01,NO,1699838292
103,dudinka,69.4058,86.1778,30.67,98,100,17.0,RU,1699838141
104,nizhneangarsk,55.7833,109.55,19.99,76,100,1.01,RU,1699838292
105,al ghayzah,16.2079,52.176,78.46,72,0,1.81,YE,1699838292
106,alice springs,-23.7,133.8833,92.75,27,85,10.36,AU,1699838145
107,masina,-4.3836,15.3914,71.8,97,100,1.01,CD,1699838293
108,ilulissat,69.2167,-51.1,10.42,61,28,0.0,GL,1699838293
109,west island,-12.1568,96.8225,80.58,83,75,11.5,CC,1699838140
110,carnarvon,-24.8667,113.6333,72.73,70,30,9.1,AU,1699838293
111,arkhipo-osipovka,44.37,38.52,58.64,76,100,9.31,RU,1699838293
112,ontario,34.0633,-117.6509,76.73,23,75,9.22,US,1699838080
113,kapoeta,4.7717,33.5903,81.39,53,30,12.01,SS,1699838294
114,longyearbyen,78.2186,15.6401,22.84,80,75,21.85,SJ,1699838294
115,severo-yeniseyskiy,60.3725,93.0408,24.58,98,100,1.99,RU,1699838294
116,atafu village,-8.5421,-172.5159,84.42,69,30,1.79,TK,1699838294
117,brooks,50.5834,-111.8851,36.03,63,100,3.44,CA,1699838294
118,la ronge,55.1001,-105.2842,32.25,74,0,4.61,CA,1699838295
119,tonghae,37.5439,129.1069,42.12,29,0,6.06,KR,1699838295
120,sawankhalok,17.316,99.8319,80.49,89,0,3.44,TH,1699838295
121,lethem,3.3803,-59.7968,83.1,58,8,6.78,GY,1699838295
122,misratah,32.3754,15.0925,70.36,60,0,8.93,LY,1699838295
123,tolanaro,-25.0319,46.9987,66.06,81,0,8.88,MG,1699838296
124,codrington,-38.2667,141.9667,61.27,51,5,12.5,AU,1699838296
125,parras de la fuente,25.4167,-102.1833,52.25,89,100,7.47,MX,1699838296
126,san sebastian de la gomera,28.0916,-17.1133,78.17,43,0,0.0,ES,1699838296
127,sinabang,2.4803,96.3801,80.49,82,100,4.03,ID,1699838296
128,tacoronte,28.4769,-16.4102,71.35,61,0,3.44,ES,1699838297
129,bel ombre,-4.6167,55.4167,80.44,83,20,3.44,SC,1699838297
130,isafjordur,66.0755,-23.124,35.11,83,100,4.16,IS,1699838297
131,inirida,3.8653,-67.9239,76.98,92,100,3.02,CO,1699838297
132,iwanai,42.9744,140.5089,37.17,73,99,12.93,JP,1699838297
133,boa vista,2.8197,-60.6733,85.98,58,0,9.22,BR,1699838190
134,ola,59.5833,151.2833,12.15,63,100,12.33,RU,1699838298
135,georgetown,5.4112,100.3354,85.95,79,20,3.44,MY,1699838110
136,enewetak,11.3474,162.3373,80.24,87,100,16.6,MH,1699838298
137,demopolis,32.5176,-87.8364,58.95,94,100,0.0,US,1699838298
138,port elizabeth,-33.918,25.5701,59.29,78,0,10.36,ZA,1699838298
139,hawaiian paradise park,19.5933,-154.9731,80.11,89,75,5.75,US,1699838299
140,sitka,57.0531,-135.33,40.89,75,0,3.44,US,1699838299
141,masterton,-40.9597,175.6575,61.88,58,12,15.46,NZ,1699838299
142,mar del plata,-38.0023,-57.5575,53.87,69,0,5.01,AR,1699838255
143,martapura,-3.4167,114.85,82.49,78,40,5.75,ID,1699838299
144,mahina,-17.5065,-149.489,85.77,70,75,10.36,PF,1699838299
145,port hedland,-20.3167,118.5667,86.05,48,3,9.22,AU,1699838300
146,phalaborwa,-23.943,31.1411,67.28,77,100,12.21,ZA,1699838300
147,penig,50.9333,12.7167,42.3,82,100,5.75,DE,1699838300
148,pitesti,44.85,24.8667,36.68,55,5,4.7,RO,1699838109
149,leer,53.2316,7.461,41.94,96,61,6.26,DE,1699838300
150,caldelas,41.671,-8.3815,64.06,97,100,6.33,PT,1699838300
151,tura,25.5198,90.2201,64.85,83,0,3.44,IN,1699838301
152,tancacha,-32.2431,-63.9807,58.86,27,0,12.53,AR,1699838301
153,port douglas,-16.4833,145.4667,78.08,68,82,11.81,AU,1699838301
154,el nido,11.1858,119.3956,84.56,73,96,15.03,PH,1699838301
155,klyuchi,52.2667,79.1667,40.73,84,99,11.07,RU,1699838301
156,ambodifotatra,-16.9833,49.85,76.33,72,33,2.59,MG,1699838301
157,ostroh,50.3294,26.5143,39.99,85,100,13.8,UA,1699838302
158,nar'yan-mar,67.6713,53.087,11.1,94,52,5.01,RU,1699838302
159,issia,6.4922,-6.5856,72.73,99,70,3.36,CI,1699838302
160,kulhudhuffushi,6.6221,73.07,81.82,76,96,5.88,MV,1699838302
161,bubaque,11.2833,-15.8333,82.81,67,4,10.6,GW,1699838302
162,mount pearl,47.5166,-52.7813,30.15,84,100,13.8,CA,1699838303
163,san antonio de pale,-1.4014,5.6325,79.2,83,27,13.04,GQ,1699838298
164,soe,-9.8607,124.284,84.9,34,10,4.88,ID,1699838303
165,pisco,-13.7,-76.2167,68.02,88,0,18.41,PE,1699838303
166,maun,-19.9833,23.4167,80.91,24,29,3.22,BW,1699838303
167,aykhal,66.0,111.5,8.49,95,100,9.48,RU,1699838303
168,kish,26.5578,54.0194,77.27,53,0,0.0,IR,1699838304
169,saipan,15.1355,145.701,88.5,66,40,17.27,MP,1699838304
170,horta,38.5333,-28.6333,63.01,90,100,1.99,PT,1699838304
171,lihue,21.9789,-159.3672,83.44,73,40,19.57,US,1699838304
172,kingston,17.997,-76.7936,86.95,66,20,12.66,JM,1699838304
173,tikapur,28.5,81.1333,60.17,64,0,3.91,NP,1699838304
174,belyy yar,53.6039,91.3903,17.49,93,100,2.24,RU,1699838305
175,bathsheba,13.2167,-59.5167,83.01,83,40,21.85,BB,1699838305
176,meitingen,48.55,10.85,45.97,100,100,3.44,DE,1699838305
177,saldanha,-33.0117,17.9442,55.45,87,0,16.11,ZA,1699838305
178,stanley,54.868,-1.6985,43.72,95,75,4.61,GB,1699838305
179,san ignacio de velasco,-16.3667,-60.95,82.54,56,6,4.97,BO,1699838306
180,saudarkrokur,65.7461,-19.6394,31.23,65,99,6.62,IS,1699838306
181,petropavlovsk-kamchatsky,53.0452,158.6483,30.79,74,40,28.01,RU,1699838306
182,natal,-5.795,-35.2094,79.02,73,20,9.22,BR,1699838306
183,hermanus,-34.4187,19.2345,57.58,86,3,7.87,ZA,1699838307
184,neryungri,56.6709,124.6491,9.5,90,95,7.54,RU,1699838308
185,tazovsky,67.4667,78.7,11.82,95,51,12.55,RU,1699838151
186,lospalos,-8.5186,127.0025,85.89,51,39,7.58,TL,1699838308
187,colonia,50.9333,6.95,45.43,88,0,6.91,DE,1699838051
188,cannonvale,-20.2833,148.7,79.99,53,0,12.28,AU,1699838309
189,weno,7.4515,151.8468,78.75,89,75,9.22,FM,1699838309
190,callao,-12.0667,-77.15,70.72,77,100,13.8,PE,1699838309
191,port lincoln,-34.7333,135.8667,62.08,65,100,9.1,AU,1699838309
192,fada,9.5667,8.3,70.66,50,14,2.86,NG,1699838310
193,sao felix do xingu,-6.6447,-51.995,80.74,49,28,2.19,BR,1699838310
194,punta arenas,-53.15,-70.9167,50.11,62,75,20.71,CL,1699838134
195,olonkinbyen,70.9221,-8.7187,26.01,67,100,5.3,SJ,1699838310
196,vostochnyy,55.8167,37.8667,42.37,89,100,11.12,RU,1699838311
197,moranbah,-22.0016,148.0466,85.03,34,0,10.85,AU,1699838311
198,chonchi,-42.6128,-73.8092,46.11,84,96,3.13,CL,1699838207
199,hamilton,39.1834,-84.5333,49.77,66,0,1.01,US,1699837831
200,rexburg,43.826,-111.7897,48.18,46,0,4.61,US,1699838223
201,alofi,-19.0595,-169.9187,76.89,83,100,11.5,NU,1699838311
202,port saint john's,-31.6229,29.5448,61.34,71,0,7.83,ZA,1699838311
203,praskoveya,44.7444,44.2031,55.08,71,100,7.63,RU,1699838312
204,riyadh,24.6877,46.7219,69.94,53,24,5.79,SA,1699838312
205,kindu,-2.95,25.95,69.15,99,99,1.28,CD,1699838312
206,berdigestyakh,62.0989,126.6992,2.25,95,100,8.79,RU,1699838312
207,benguela,-12.5763,13.4055,79.2,77,100,2.91,AO,1699838312
208,trail,49.0998,-117.7022,42.67,97,100,3.09,CA,1699838313
209,gaalkacyo,6.7697,47.4308,77.11,83,18,10.94,SO,1699838313
210,taoudenni,22.6783,-3.9836,78.4,19,0,13.56,ML,1699838313
211,gandajika,-6.75,23.95,63.95,98,96,3.06,CD,1699838313
212,santo antonio do ica,-3.1022,-67.9397,75.74,90,75,1.39,BR,1699838314
213,tiksi,71.6872,128.8694,1.85,90,99,14.54,RU,1699838314
214,mejit,10.2753,170.8646,82.69,80,100,17.13,MH,1699838314
215,iskateley,67.6803,53.1512,11.01,94,56,5.01,RU,1699838314
216,tual,-5.6667,132.75,82.17,78,31,10.67,ID,1699838314
217,'alaqahdari dishu,30.4374,63.313,60.21,38,100,5.39,AF,1699838315
218,vilyuchinsk,52.9306,158.4028,32.27,66,45,6.49,RU,1699838315
219,tutoia,-2.7619,-42.2744,79.72,80,0,11.72,BR,1699838315
220,villa gesell,-37.2639,-56.973,55.06,61,99,14.0,AR,1699838160
221,prince rupert,54.3161,-130.3201,46.09,72,75,17.27,CA,1699838079
222,ust'-ilimsk,58.0006,102.6619,13.44,87,52,1.99,RU,1699838316
223,aoulef,26.9667,1.0833,72.27,27,1,10.83,DZ,1699838316
224,al bawiti,28.3492,28.8659,67.98,84,0,8.19,EG,1699838316
225,gisborne,-38.6533,178.0042,67.48,56,2,7.31,NZ,1699838316
226,luganville,-15.5333,167.1667,79.39,70,100,13.8,VU,1699838317
227,mount gambier,-37.8333,140.7667,64.26,45,10,7.87,AU,1699838317
228,harper,4.375,-7.7169,78.46,89,44,8.48,LR,1699838317
229,saint-philippe,-21.3585,55.7679,67.59,83,71,6.53,RE,1699838317
230,chany,55.3121,76.7647,35.08,97,100,9.26,RU,1699838318
231,sabha,27.0377,14.4283,66.34,39,0,6.62,LY,1699838318
232,caleta de carquin,-11.0925,-77.6267,67.53,82,11,11.23,PE,1699838318
233,torit,4.4133,32.5678,75.7,64,15,1.74,SS,1699838318
234,mhamid,29.82,-5.72,68.52,32,7,1.57,MA,1699838318
235,xinyi,22.373,110.9475,61.84,77,83,8.1,CN,1699838318
236,khandyga,62.6667,135.6,-7.33,96,100,1.36,RU,1699838319
237,quellon,-43.1167,-73.6167,45.79,79,100,8.81,CL,1699838319
238,la grande,45.3246,-118.0877,52.02,53,100,10.98,US,1699838172
239,akureyri,65.6835,-18.0878,30.13,74,0,3.44,IS,1699838319
240,escanaba,45.7453,-87.0646,48.16,81,20,13.8,US,1699838319
241,gamay,12.3854,125.2979,83.07,85,99,7.56,PH,1699838319
242,kapuskasing,49.4169,-82.4331,33.89,93,100,14.97,CA,1699838103
243,gunjur,13.2019,-16.7339,77.07,88,100,0.0,GM,1699838320
244,turpan,42.9333,89.1667,39.96,34,0,1.25,CN,1699838320
245,itaituba,-4.2761,-55.9836,84.42,53,31,0.98,BR,1699838320
246,birao,10.2849,22.7882,75.96,77,21,3.6,CF,1699838320
247,gaoual,11.75,-13.2,74.46,58,5,2.55,GN,1699838320
248,pikeville,37.4793,-82.5188,52.61,53,0,5.75,US,1699838320
249,vila velha,-20.3297,-40.2925,80.55,83,0,9.22,BR,1699838149
250,ta`u,-14.2336,-169.5144,82.18,79,17,9.93,AS,1699838321
251,fort st. john,56.2499,-120.8529,33.69,60,75,2.3,CA,1699838107
252,dryden,49.7833,-92.7503,35.89,93,100,10.36,CA,1699838321
253,ribeira grande,38.5167,-28.7,63.77,90,100,1.99,PT,1699838321
254,turinsk,58.0458,63.696,30.94,89,100,5.35,RU,1699838321
255,carbonear,47.7332,-53.2148,31.42,78,38,10.96,CA,1699838321
256,bandarbeyla,9.4942,50.8122,79.81,85,100,15.35,SO,1699838322
257,magnitogorsk,53.4186,59.0472,32.83,86,40,11.18,RU,1699838322
258,roznava,48.6601,20.5376,30.07,91,9,2.24,SK,1699838322
259,la sarre,48.8002,-79.1996,27.99,92,97,11.14,CA,1699838322
260,vadso,70.0744,29.7487,21.36,93,20,14.97,NO,1699838322
261,port alfred,-33.5906,26.891,56.17,88,59,1.99,ZA,1699838322
262,praya,14.9215,-23.5087,75.74,83,0,9.22,CV,1699838322
263,al jawf,29.5,38.75,73.42,36,99,5.75,SA,1699838323
264,cartagena,10.3997,-75.5144,80.22,94,20,2.3,CO,1699838191
265,kirensk,57.7853,108.1119,12.96,91,100,3.0,RU,1699838323
266,whitehorse,60.7161,-135.0538,27.37,80,100,8.05,CA,1699838189
267,puerto lempira,15.2667,-83.7667,78.82,92,99,9.17,HN,1699838323
268,kiama,-34.6833,150.8667,70.38,63,100,6.85,AU,1699838323
269,oqtosh,39.9214,65.9253,43.34,52,87,6.26,UZ,1699838323
270,san patricio,28.017,-97.5169,62.83,97,100,12.73,US,1699838156
271,tralee,52.2704,-9.7026,53.11,96,100,12.37,IE,1699838324
272,aubenas,44.6201,4.3899,48.16,89,100,0.87,FR,1699838324
273,swakopmund,-22.6833,14.5333,59.09,86,5,4.54,NA,1699838324
274,antofagasta,-23.65,-70.4,61.88,77,42,8.68,CL,1699838324
275,jamaame,0.0697,42.745,77.95,85,35,3.96,SO,1699838324
276,flying fish cove,-10.4217,105.6791,78.48,83,100,10.36,CX,1699838315
277,ferkessedougou,9.6,-5.2,77.97,53,8,1.12,CI,1699838325
278,ortigueira,-24.2083,-50.9494,75.69,63,61,2.98,BR,1699838325
279,eraan,9.0629,117.7016,84.9,67,9,3.38,PH,1699838325
280,songjiang,31.036,121.2146,51.06,47,23,10.25,CN,1699838325
281,tateyama,34.9833,139.8667,55.33,54,40,17.27,JP,1699838325
282,yuzhno-kurilsk,44.0306,145.8556,36.37,80,53,5.48,RU,1699838325
283,nuuk,64.1835,-51.7216,23.61,74,18,9.22,GL,1699838326
284,talnakh,69.4865,88.3972,29.21,96,100,9.53,RU,1699838326
285,arraial do cabo,-22.9661,-42.0278,76.33,85,100,2.17,BR,1699838069
286,kuopio,62.8924,27.677,30.22,86,100,9.22,FI,1699838326
287,ouarzazat,30.9189,-6.8934,61.09,29,0,2.3,MA,1699838326
288,westport,41.1415,-73.3579,39.2,68,0,5.75,US,1699838108
289,anadyr,64.75,177.4833,28.9,100,75,15.66,RU,1699838327
290,trondheim,63.4305,10.3951,32.09,84,11,6.6,NO,1699838300
291,christiana,-27.914,25.1611,64.85,31,2,9.64,ZA,1699838327
292,palikir - national government center,6.9248,158.1611,86.85,74,100,3.44,FM,1699838327
293,villanueva,15.3167,-88.0,79.03,94,100,5.75,HN,1699838328
294,dapa,9.7594,126.0531,83.79,74,5,4.79,PH,1699838328
295,tobelo,1.7284,128.0095,84.38,68,100,1.83,ID,1699838328
296,ibarreta,-25.2144,-59.8585,96.48,30,100,4.65,AR,1699838328
297,pudasjarvi,65.3833,26.9167,25.29,82,100,9.91,FI,1699838328
298,college,64.8569,-147.8028,13.95,79,40,5.75,US,1699838328
299,mumbai,19.0144,72.8479,82.38,54,100,0.0,IN,1699838328
300,sandnessjoen,66.0217,12.6316,19.92,68,17,12.53,NO,1699838329
301,ravar,31.2656,56.8055,59.43,31,29,0.67,IR,1699838329
302,douz,33.4663,9.0203,63.66,37,0,5.01,TN,1699838329
303,tommot,58.9564,126.2925,9.72,92,100,9.22,RU,1699838329
304,arvika,59.6553,12.5852,30.81,86,12,4.7,SE,1699838329
305,walvis bay,-22.9575,14.5053,58.6,87,6,4.83,NA,1699838330
306,macau,22.2006,113.5461,69.6,73,40,23.02,MO,1699838330
307,nabire,-3.3667,135.4833,86.63,61,100,3.98,ID,1699838330
308,energetik,51.7445,58.7934,35.76,91,38,6.96,RU,1699838330
309,hasaki,35.7333,140.8333,52.2,78,100,23.22,JP,1699838331
310,nishinoomote,30.7333,131.0,57.76,54,40,19.57,JP,1699838331
311,badger,64.8,-147.5333,13.87,79,40,5.75,US,1699838331
312,arkhangel'sk,64.5401,40.5433,26.13,93,59,9.84,RU,1699838297
313,remire-montjoly,4.9167,-52.2667,81.3,82,2,12.17,GF,1699838331
314,del rio,29.3627,-100.8968,62.71,88,100,3.44,US,1699838127
315,fort bragg,35.139,-79.006,55.81,78,0,1.01,US,1699838332
316,jiaozuo,35.2397,113.2331,43.02,48,99,2.15,CN,1699838332
317,avarua,-21.2078,-159.775,75.25,60,20,6.91,CK,1699838332
318,sisimiut,66.9395,-53.6735,15.22,87,88,7.09,GL,1699838332
319,nampa,43.5407,-116.5635,59.83,44,0,6.91,US,1699838154
320,suez,29.9737,32.5263,72.48,67,6,9.93,EG,1699838333
321,eyl,7.9803,49.8164,80.67,76,92,14.65,SO,1699838333
322,peace river,56.2501,-117.286,32.31,80,40,6.91,CA,1699838333
323,sept-iles,50.2001,-66.3821,30.2,73,100,8.05,CA,1699838333
324,klaksvik,62.2266,-6.589,43.72,76,100,24.38,FO,1699838333
325,champerico,14.3,-91.9167,82.72,78,6,3.6,GT,1699838333
326,camayenne,9.535,-13.6878,82.49,89,75,9.22,GN,1699838334
327,keflavik,64.0049,-22.5624,39.63,65,0,13.8,IS,1699838334
328,baganga,7.5739,126.56,85.53,69,23,7.45,PH,1699838334
329,luderitz,-26.6481,15.1594,64.78,56,0,17.58,NA,1699838334
330,tannum sands,-23.9504,151.3693,80.49,39,10,12.66,AU,1699838334
331,ancud,-41.8697,-73.8203,45.37,77,79,8.66,CL,1699838334
332,ranchettes,41.2186,-104.7903,44.47,26,0,8.05,US,1699838335
333,"laikit, laikit ii (dimembe)",1.4792,124.9735,86.85,62,40,3.44,ID,1699838335
334,ballina,-28.8667,153.5667,77.77,77,80,10.07,AU,1699838335
335,galliano,29.4422,-90.2992,69.8,88,100,5.75,US,1699838335
336,necochea,-38.5473,-58.7368,49.17,57,0,7.0,AR,1699838335
337,north bend,43.4065,-124.2243,58.91,88,100,8.05,US,1699838206
338,mount isa,-20.7333,139.5,96.57,20,5,12.66,AU,1699838336
339,andergrove,-21.0833,149.1833,85.64,53,1,9.84,AU,1699838336
340,metlili chaamba,32.2667,3.6333,63.99,28,0,8.28,DZ,1699838336
341,zeya,53.75,127.2667,25.48,42,0,9.26,RU,1699838336
342,gun barrel city,32.3346,-96.1514,61.12,72,100,7.05,US,1699838336
343,coronel suarez,-37.4547,-61.9334,49.57,26,0,5.97,AR,1699838336
344,dinguiraye,11.3,-10.7167,72.3,38,7,2.73,GN,1699838298
345,kapa'a,22.0752,-159.319,84.18,78,40,19.57,US,1699838315
346,novovyazniki,56.1975,42.1711,47.21,77,100,16.49,RU,1699838337
347,teterow,53.7833,12.5667,43.45,92,96,8.72,DE,1699838337
348,kerikeri,-35.2268,173.9474,68.18,51,0,8.79,NZ,1699838337
349,pimentel,-6.8367,-79.9342,70.09,78,0,18.41,PE,1699838337
350,mermoz boabab,14.7065,-17.4758,77.56,70,77,13.47,SN,1699838337
351,pader palwo,2.8006,33.135,71.35,70,65,4.34,UG,1699838337
352,kovalam,8.3667,76.9967,80.69,83,40,3.44,IN,1699838338
353,mosjoen,65.836,13.1908,19.92,86,75,1.14,NO,1699838338
354,xining,36.6167,101.7667,29.79,54,0,1.99,CN,1699838338
355,chaman,30.9236,66.4512,53.62,36,40,3.4,PK,1699838338
356,ghansor,22.65,79.95,58.95,73,47,3.51,IN,1699838338
357,bakanas,44.8081,76.2772,38.43,66,26,7.2,KZ,1699838338
358,salmas,38.1973,44.7653,51.75,50,100,2.77,IR,1699838339
359,alesund,62.4723,6.1549,37.33,75,20,10.36,NO,1699838339
360,constantia,44.1833,28.65,45.7,50,100,5.79,RO,1699838339
361,carrollton,32.9537,-96.8903,60.42,71,20,0.0,US,1699838274
362,mukalla,14.5425,49.1242,78.3,67,5,3.15,YE,1699838339
363,portland,45.5234,-122.6762,58.03,78,75,13.8,US,1699838213
364,maralal,1.0968,36.698,58.82,94,91,5.08,KE,1699838339
365,duobao,30.67,112.6895,46.78,53,77,9.53,CN,1699838340
366,meizhou,24.2977,116.1072,60.03,77,99,5.21,CN,1699838340
367,mogocha,53.7333,119.7667,15.6,55,14,1.21,RU,1699838340
368,la passe,45.5549,-0.8967,57.97,86,99,10.47,FR,1699838340
369,jemna,33.5778,9.0147,64.54,37,0,5.41,TN,1699838340
370,anuradhapura,8.3565,80.4173,74.37,96,100,3.49,LK,1699838340
371,caluula,11.9661,50.7569,80.92,77,18,12.53,SO,1699838340
372,port antonio,18.18,-76.4612,87.71,80,8,5.75,JM,1699838340
373,loanda,-8.8368,13.2343,77.18,89,100,9.33,AO,1699838341
374,xiaoweizhai,26.1903,107.5125,39.36,89,100,7.09,CN,1699838341
375,hirara,24.8,125.2833,73.67,68,75,27.63,JP,1699838341
376,mongo,12.1844,18.693,80.24,30,97,2.95,TD,1699838341
377,kalas,18.1667,74.8,70.11,64,100,5.32,IN,1699838341
378,nadym,65.5333,72.5167,13.55,85,14,14.58,RU,1699838342
379,malango,-2.9627,119.9001,79.75,62,97,1.77,ID,1699838342
380,pangody,65.85,74.4859,12.67,88,12,14.16,RU,1699838342
381,gorontalo,0.5412,123.0595,87.85,64,59,2.19,ID,1699838342
382,rovaniemi,66.5,25.7167,17.01,92,100,10.36,FI,1699838343
383,egilsstadir,65.2653,-14.3948,30.11,93,40,4.61,IS,1699838343
384,bishkek,42.87,74.59,35.8,84,83,3.38,KG,1699838343
385,monze,-16.2833,27.4833,70.95,37,21,4.25,ZM,1699838343
386,nizhnyaya salda,58.0776,60.7202,32.2,83,100,5.35,RU,1699838343
387,benghazi,32.1167,20.0667,70.97,67,1,5.5,LY,1699838344
388,kayes,14.0,-11.0,82.15,20,75,2.71,ML,1699838344
389,piti village,13.4626,144.6933,88.68,77,75,19.57,GU,1699838344
390,punta del este,-34.9667,-54.95,59.97,71,75,8.01,UY,1699838344
391,pavlovskaya sloboda,55.8156,37.0828,43.12,95,100,9.28,RU,1699838345
392,chimbote,-9.0853,-78.5783,67.17,83,100,9.26,PE,1699838145
393,kenai,60.5544,-151.2583,25.14,96,0,3.44,US,1699838345
394,brush,40.2589,-103.6238,51.6,31,0,6.91,US,1699838345
395,muisne,0.6,-80.0333,77.2,85,43,6.2,EC,1699838345
396,mujiayingzi,42.1167,118.7833,22.48,67,0,6.29,CN,1699838346
397,buka,40.8108,69.1986,43.99,55,87,4.97,UZ,1699838346
398,pandan,14.0453,124.1694,81.64,87,100,17.34,PH,1699838346
399,paita,-5.0892,-81.1144,69.71,83,2,15.26,PE,1699838347
400,bosaso,11.2842,49.1816,79.88,85,47,4.63,SO,1699838347
401,gulf shores,30.246,-87.7008,66.99,77,75,10.36,US,1699838347
402,kone,-21.0595,164.8658,82.29,41,13,10.04,NC,1699838347
403,januaria,-15.4833,-44.3667,77.95,37,7,2.95,BR,1699838348
404,lodja,-3.4833,23.4333,67.93,99,100,1.3,CD,1699838348
405,angarsk,52.5367,103.8864,18.32,97,57,1.99,RU,1699838348
406,acapulco de juarez,16.8634,-99.8901,85.82,74,0,8.05,MX,1699838324
407,castillos,-34.1667,-53.8333,60.42,85,91,6.93,UY,1699838348
408,oranjemund,-28.55,16.4333,57.61,87,0,15.64,NA,1699838349
409,uturoa,-16.7333,-151.4333,81.88,76,23,6.71,PF,1699838349
410,buulobarde,3.8538,45.5674,77.81,83,24,5.66,SO,1699838349
411,kingaroy,-26.5333,151.8333,87.12,32,0,4.23,AU,1699838349
412,freguesia do ribeirao da ilha,-27.7177,-48.5627,76.08,83,75,11.5,BR,1699838349
413,felahiye,39.0906,35.5672,38.14,58,99,3.06,TR,1699838350
414,santa ana,33.7456,-117.8678,79.86,37,75,5.75,US,1699838264
415,chandler,33.3062,-111.8412,78.6,27,0,5.75,US,1699838350
416,vredendal,-31.6683,18.5012,57.09,73,0,2.71,ZA,1699838350
417,coahuayana de hidalgo,18.7,-103.6583,79.03,87,21,1.41,MX,1699838350
418,cabedelo,-6.9811,-34.8339,77.67,77,3,8.66,BR,1699838070
419,el-tor,28.2364,33.6254,71.74,83,0,9.22,EG,1699838351
420,villa de arista,22.65,-100.8333,63.41,90,100,8.93,MX,1699838351
421,gadzhiyevo,69.2551,33.3362,14.04,97,99,9.64,RU,1699838351
422,kurchatov,51.6601,35.6521,45.01,94,100,18.52,RU,1699838351
423,waiuku,-37.25,174.75,70.09,54,0,9.6,NZ,1699838351
424,musoma,-1.5,33.8,68.94,84,87,3.36,TZ,1699838351
425,malvan,16.0667,73.4667,78.51,60,77,6.17,IN,1699838352
426,masuguru,-11.3667,38.4167,79.11,74,86,4.79,TZ,1699838352
427,zaozersk,69.4005,32.4476,11.86,97,99,7.58,RU,1699838350
428,ghanzi,-21.5667,21.7833,81.14,26,87,13.85,BW,1699838352
429,benemerito de las americas,16.5167,-90.6439,72.55,98,11,0.29,MX,1699838352
430,male,4.1748,73.5089,80.55,89,20,3.44,MV,1699838300
431,hadibu,12.65,54.0333,79.81,83,70,13.4,YE,1699838353
432,okhotsk,59.3833,143.3,4.28,77,0,21.9,RU,1699838353
433,el granada,37.5027,-122.4694,67.14,69,0,8.05,US,1699838354
434,navrongo,10.8956,-1.0921,81.66,23,94,6.22,GH,1699838355
435,hinton,53.4001,-117.5857,32.61,59,100,3.71,CA,1699838355
436,san luis de la loma,17.2706,-100.8939,80.76,84,9,5.68,MX,1699838355
437,saint-pierre,-21.3393,55.4781,67.68,64,0,9.22,RE,1699838356
438,asilah,35.465,-6.0348,57.16,78,100,4.94,MA,1699838356
439,moussoro,13.6408,16.4901,81.46,18,13,10.74,TD,1699838356
440,vorkuta,67.5,64.0,10.74,97,73,7.09,RU,1699838356
441,aleksandrovsk-sakhalinskiy,50.8975,142.1561,19.56,76,100,12.5,RU,1699838356
442,shahrak,34.1074,64.3052,35.62,47,0,1.9,AF,1699838356
443,todos santos,23.45,-110.2167,79.45,69,4,6.17,MX,1699838357
444,cooma,-36.2333,149.1333,72.82,25,93,0.92,AU,1699838357
445,lorengau,-2.0226,147.2712,85.1,64,29,4.45,PG,1699838357
446,cockburn town,21.4612,-71.1419,83.39,76,2,19.86,TC,1699838357
447,imbituba,-28.24,-48.6703,70.81,98,100,3.76,BR,1699838357
448,amurzet,47.6967,131.0981,21.36,79,6,10.18,RU,1699838358
449,hailin,44.5833,129.4167,14.29,85,22,5.66,CN,1699838358
450,tsuruoka,38.7217,139.8217,44.64,81,75,17.27,JP,1699838358
451,naze,28.3667,129.4833,67.12,65,82,20.0,JP,1699838358
452,opochka,56.7105,28.6617,33.87,98,100,6.87,RU,1699838359
453,prado,-17.3411,-39.2208,76.24,83,4,15.05,BR,1699838316
454,viedma,-40.8135,-62.9967,52.29,17,0,7.27,AR,1699838359
455,hammerfest,70.6634,23.6821,21.65,63,12,1.14,NO,1699838359
456,kralendijk,12.15,-68.2667,84.18,79,40,17.27,BQ,1699838359
457,katsuura,35.1333,140.3,55.42,81,96,19.82,JP,1699838360
458,kavaratti,10.5669,72.642,82.11,74,64,3.71,IN,1699838360
459,macapa,0.0389,-51.0664,84.18,79,0,16.11,BR,1699838360
460,cabezon de la sal,43.3089,-4.2302,68.36,79,17,7.92,ES,1699838360
461,ambatondrazaka,-17.8333,48.4167,66.81,83,99,1.81,MG,1699838360
462,fuding,27.3273,120.214,55.09,65,8,5.41,CN,1699838361
463,haiku-pauwela,20.9219,-156.3051,80.51,70,20,31.07,US,1699838361
464,smithers,54.7804,-127.1743,30.52,100,100,2.3,CA,1699838361
465,kuta,-8.7233,115.1723,80.55,94,40,9.22,ID,1699838361
466,bamboo flat,11.7,92.7167,75.29,94,100,2.3,IN,1699838314
467,holma,9.9008,13.0567,78.21,35,86,2.28,NG,1699838361
468,trenggalek,-8.05,111.7167,83.41,72,58,5.79,ID,1699838362
469,bengkulu,-3.8004,102.2655,78.94,83,96,3.47,ID,1699838362
470,ilinge,-31.9768,27.0427,45.05,91,0,2.46,ZA,1699838362
471,santana,-0.0583,-51.1817,84.38,79,0,16.11,BR,1699838313
472,patigi,8.7333,5.75,79.34,58,13,3.24,NG,1699838362
473,pachino,36.7186,15.0907,67.1,81,100,19.6,IT,1699838363
474,nizhnesortymskiy,62.4397,71.7603,20.84,91,100,11.21,RU,1699838363
475,tadine,-21.55,167.8833,74.77,57,64,20.56,NC,1699838363
476,vila franca do campo,37.7167,-25.4333,68.41,92,92,15.52,PT,1699838363
477,pacific grove,36.6177,-121.9166,61.18,84,75,6.91,US,1699838363
478,cuenca,-2.8833,-78.9833,62.73,67,40,3.44,EC,1699838243
479,waingapu,-9.6567,120.2641,86.34,64,87,5.97,ID,1699838364
480,labytnangi,66.6572,66.4183,10.58,88,16,8.95,RU,1699838353
481,mae chan,20.1467,99.8526,77.18,95,71,1.12,TH,1699838364
482,donggang,28.9365,114.2259,45.14,82,100,3.44,CN,1699838365
483,edea,3.8,10.1333,75.27,99,100,1.45,CM,1699838228
484,quesnel,52.9999,-122.5029,45.1,42,100,11.5,CA,1699838365
485,selfoss,63.9331,-20.9971,37.04,64,100,14.5,IS,1699838365
486,paramonga,-10.6667,-77.8333,67.24,83,35,10.16,PE,1699838365
487,ormara,25.2088,64.6357,77.74,46,90,2.39,PK,1699838366
488,inongo,-1.95,18.2667,71.08,93,100,3.44,CD,1699838366
489,kayyerkan,69.3786,87.7439,29.3,100,100,11.65,RU,1699838366
490,sao joao da barra,-21.6403,-41.0511,75.49,89,100,9.71,BR,1699838366
491,nova vicosa,-17.8919,-39.3719,76.73,81,0,17.13,BR,1699838361
492,papao,-17.75,-149.55,85.68,76,39,5.28,PF,1699838367
493,anka,12.1138,5.9243,75.65,22,0,9.17,NG,1699838367
494,valparaiso,-33.0393,-71.6273,55.04,71,75,3.44,CL,1699838367
495,kiunga,-6.1219,141.2906,89.58,53,20,2.42,PG,1699838367
496,languyan,5.2618,120.0807,82.26,81,7,3.78,PH,1699838368
497,ciudad lazaro cardenas,17.9583,-102.2,80.51,81,69,4.83,MX,1699838368
498,polyarnyy,69.1989,33.4478,14.7,96,97,9.89,RU,1699838368
499,port-vila,-17.7338,168.3219,78.4,78,100,17.27,VU,1699838368
500,santa elena de uairen,4.6167,-61.1333,70.63,82,71,3.91,VE,1699838369
501,fort mcmurray,56.7268,-111.381,31.59,86,0,6.91,CA,1699838340
502,madalena,41.2162,-8.3345,63.18,94,99,6.73,PT,1699838369
503,coquimbo,-29.9533,-71.3436,56.93,82,0,10.36,CL,1699838206
504,wakkanai,45.4094,141.6739,35.1,64,75,17.27,JP,1699838370
505,eberswalde,52.8349,13.8195,44.22,79,31,6.22,DE,1699838370
506,kievka,50.2619,71.5514,37.53,96,100,11.59,KZ,1699838370
507,pitiquito,30.7,-112.0833,75.38,21,0,4.83,MX,1699838370
508,palmer,42.1584,-72.3287,33.15,73,0,3.44,US,1699838099
509,hamina,60.5697,27.1979,35.33,91,100,17.54,FI,1699838370
510,mjolby,58.326,15.1237,33.51,92,100,4.74,SE,1699838371
511,yanchep,-31.55,115.6833,73.62,67,100,10.54,AU,1699838371
512,ponnani,10.767,75.9252,72.72,82,98,6.58,IN,1699838371
513,saskatoon,52.1168,-106.6345,31.98,64,20,9.22,CA,1699838299
514,nerchinsk,51.9833,116.5833,10.74,88,34,2.86,RU,1699838249
515,banda aceh,5.5577,95.3222,81.3,78,30,8.43,ID,1699838372
516,envira,-7.3,-70.2167,76.96,84,30,2.24,BR,1699838372
517,purpe,64.4803,76.6897,15.35,95,69,13.6,RU,1699838372
518,belmonte,-15.8631,-38.8828,77.2,79,21,12.57,BR,1699838372
519,cruz del eje,-30.7264,-64.8039,66.11,30,33,21.68,AR,1699838372
520,queenstown,-31.8976,26.8753,45.77,91,0,2.62,ZA,1699838115
521,hualien city,23.9769,121.6044,69.21,85,89,14.74,TW,1699838372
522,guerrero negro,27.9769,-114.0611,69.06,56,0,13.8,MX,1699838373
523,peterhead,57.5058,-1.7981,46.8,80,99,25.86,GB,1699838373
524,usinsk,65.9939,57.5281,5.07,100,92,5.01,RU,1699838373
525,gamawa,12.1343,10.5396,73.63,19,33,9.22,NG,1699838373
526,znamenskoye,57.1281,73.8282,33.62,99,100,4.16,RU,1699838374
527,delvada,20.7667,71.0333,75.56,33,100,11.7,IN,1699838374
528,beau vallon,-20.4189,57.6953,71.22,88,20,6.91,MU,1699838293
529,diapaga,12.0708,1.7889,79.32,20,48,6.46,BF,1699838375
530,nagqu,31.5,92.0,9.9,44,0,3.38,CN,1699838356
531,vernon,50.2581,-119.2691,42.6,69,100,1.14,CA,1699838375
532,kalifornsky,60.4183,-151.29,25.39,97,0,3.44,US,1699838375
533,broken hill,-31.95,141.4333,77.09,19,13,10.76,AU,1699838369
534,zdvinsk,54.7021,78.661,36.07,99,100,6.62,RU,1699838376
535,namtsy,62.7161,129.6658,1.49,94,73,8.75,RU,1699838376
536,challapata,-18.9,-66.7667,58.96,40,100,8.7,BO,1699838376
537,lugus,5.7036,120.8203,82.31,76,2,3.53,PH,1699838377
538,ain sukhna,29.6002,32.3167,73.76,55,5,4.45,EG,1699838378
539,kasulu,-4.5767,30.1025,63.91,91,30,2.68,TZ,1699838378
540,kismayo,-0.3582,42.5454,79.77,82,99,6.55,SO,1699838379
541,ramhormoz,31.28,49.6035,73.09,33,100,3.11,IR,1699838379
542,kolpashevo,58.3131,82.9089,33.12,99,100,5.99,RU,1699838380
543,hemsby,52.6971,1.6918,49.98,98,100,13.33,GB,1699838380
544,waddan,29.1614,16.139,64.94,75,0,4.9,LY,1699838380
545,shingu,33.7333,135.9833,52.07,62,18,9.78,JP,1699838380
546,abalak,58.1286,68.5944,30.34,95,28,4.47,RU,1699838380
547,nema,57.5067,50.5011,33.64,97,100,14.67,RU,1699838381
548,gubkinskiy,64.434,76.5026,14.67,94,70,13.65,RU,1699838381
549,arrifes,37.7667,-25.7,66.45,94,20,9.22,PT,1699838381
550,kodiak,57.79,-152.4072,38.71,60,0,0.0,US,1699838381
551,hudson,40.7168,-74.0663,44.58,59,0,8.01,US,1699838381
552,plettenberg bay,-34.0527,23.3716,55.49,76,2,5.35,ZA,1699838382
553,tidjikja,18.5564,-11.4271,76.33,13,8,9.84,MR,1699838382
554,taytay,14.5678,121.1394,86.04,71,75,2.3,PH,1699838382
555,barstow,34.8986,-117.0228,66.16,13,92,7.4,US,1699838099
556,hailar,49.2,119.7,9.32,91,10,8.32,CN,1699838382
557,kendari,-3.945,122.4989,89.55,54,35,2.08,ID,1699838382
558,yuzhno-sakhalinsk,46.9581,142.7337,28.49,74,75,8.99,RU,1699838383
559,caucete,-31.6518,-68.2811,59.7,24,0,13.09,AR,1699838383
560,northam,51.0333,-4.2167,58.66,96,100,15.84,GB,1699838383
561,kotido,2.9806,34.1331,72.68,67,91,10.78,UG,1699838383
562,rio preto da eva,-2.6994,-59.6997,81.81,66,16,3.2,BR,1699838384
563,coos bay,43.3665,-124.2179,58.98,88,100,8.05,US,1699838384
564,mariental,-24.6333,17.9667,73.36,31,3,6.42,NA,1699838384
565,padang,-0.9492,100.3543,80.65,85,94,1.32,ID,1699838384
566,bemidji,47.4736,-94.8803,46.17,74,0,11.5,US,1699838384
567,el porvenir,13.7617,-87.3458,74.53,78,100,6.67,HN,1699838384
568,cobija,-11.0267,-68.7692,82.35,60,22,2.86,BO,1699838385
569,sterling,39.0062,-77.4286,42.58,81,0,3.44,US,1699837736
570,ngaoundere,7.3167,13.5833,68.22,80,100,2.53,CM,1699838385
571,manokwari,-0.8667,134.0833,83.84,75,86,5.53,ID,1699838385
