City_ID,City,Lat,Lng,Max Temp,Humidity,Cloudiness,Wind Speed,Country,Date
0,puerto natales,-51.7236,-72.4875,40.89,86,100,4.94,CL,1699847640
1,iqaluit,63.7506,-68.5145,-2.31,77,20,5.75,CA,1699847562
2,palmer,42.1584,-72.3287,31.51,74,0,3.44,US,1699847714
3,al ghayzah,16.2079,52.176,78.91,70,1,2.06,YE,1699847679
4,nawabganj,24.5911,88.271,80.33,46,1,6.71,BD,1699847921
5,okhotsk,59.3833,143.3,8.35,75,1,19.51,RU,1699847638
6,oppdal,62.5943,9.6912,22.03,73,6,5.23,NO,1699847921
7,great falls,47.5002,-111.3008,45.68,52,0,14.97,US,1699847874
8,papatowai,-46.5619,169.4708,51.42,96,100,5.5,NZ,1699847643
9,hawaiian paradise park,19.5933,-154.9731,74.71,92,100,3.0,US,1699847568
10,cabo san lucas,22.8909,-109.9124,80.76,68,63,5.12,MX,1699847538
11,port-aux-francais,-49.35,70.2167,39.99,79,100,6.49,TF,1699847634
12,bilibino,68.0546,166.4372,1.94,98,100,5.46,RU,1699847261
13,grytviken,-54.2811,-36.5092,36.3,91,100,4.12,GS,1699847552
14,pariaman,-0.619,100.12,84.25,76,77,6.33,ID,1699847875
15,bredasdorp,-34.5322,20.0403,56.23,86,53,1.68,ZA,1699847557
16,zhanaozen,43.3,52.8,48.94,37,71,21.16,KZ,1699847922
17,ribeira grande,38.5167,-28.7,62.78,85,100,5.99,PT,1699847637
18,nemuro,43.3236,145.575,41.14,43,26,6.96,JP,1699847657
19,sao miguel do araguaia,-13.275,-50.1628,81.39,39,64,2.77,BR,1699847922
20,vysokiy,58.35,60.05,32.23,88,100,5.08,RU,1699847922
21,ilulissat,69.2167,-51.1,8.62,66,20,3.44,GL,1699847641
22,avarua,-21.2078,-159.775,71.65,68,99,9.22,CK,1699847683
23,litvinov,50.6042,13.6181,37.44,86,66,3.09,CZ,1699847923
24,biryusinsk,55.9634,97.8235,26.89,63,100,2.8,RU,1699847923
25,waitangi,-43.9535,-176.5597,55.31,85,100,18.75,NZ,1699847638
26,iskateley,67.6803,53.1512,11.01,94,44,5.01,RU,1699847551
27,afaahiti,-17.75,-149.2833,75.07,80,56,5.73,PF,1699847568
28,akureyri,65.6835,-18.0878,33.73,69,75,2.3,IS,1699847720
29,quthing,-30.4,27.7003,55.35,66,0,2.89,LS,1699847924
30,tabou,4.423,-7.3528,78.08,89,37,6.33,CI,1699847718
31,sitka,57.0531,-135.33,35.49,87,0,0.0,US,1699847664
32,aral,40.5156,81.2636,45.84,26,13,2.91,CN,1699847924
33,atafu village,-8.5421,-172.5159,85.06,68,44,4.74,TK,1699847685
34,hithadhoo,-0.6,73.0833,81.25,79,97,9.53,MV,1699847641
35,batie,9.8833,-2.9167,76.87,40,63,1.92,BF,1699847924
36,longyearbyen,78.2186,15.6401,19.24,79,75,24.16,SJ,1699847652
37,gaoping,30.7758,106.1029,49.78,87,100,1.45,CN,1699847925
38,stanley,54.868,-1.6985,44.53,95,100,5.75,GB,1699847650
39,tsengel,49.4783,100.8894,21.22,40,2,3.71,MN,1699847925
40,west island,-12.1568,96.8225,82.38,78,75,10.36,CC,1699847646
41,codrington,-38.2667,141.9667,61.74,53,5,15.57,AU,1699847689
42,nadym,65.5333,72.5167,16.54,81,14,18.14,RU,1699847925
43,bethel,41.3712,-73.414,33.94,77,0,0.0,US,1699847635
44,margaret river,-33.95,115.0667,76.35,49,55,6.78,AU,1699847553
45,utrik,11.2278,169.8474,82.18,83,99,20.47,MH,1699847643
46,alofi,-19.0595,-169.9187,75.09,88,100,12.66,NU,1699847708
47,ushuaia,-54.8,-68.3,49.66,53,0,9.22,AR,1699847515
48,aasiaat,68.7098,-52.8699,5.99,87,18,4.34,GL,1699847670
49,touros,-5.1989,-35.4608,79.59,72,43,12.97,BR,1699847643
50,la'ie,21.6477,-157.9253,82.36,81,45,8.99,US,1699847726
51,port lincoln,-34.7333,135.8667,63.28,62,100,13.76,AU,1699847371
52,floro,61.5996,5.0328,41.97,70,20,9.22,NO,1699847907
53,kushiro,42.975,144.3747,41.95,48,75,1.14,JP,1699847926
54,manicore,-5.8092,-61.3003,80.47,73,67,1.88,BR,1699847897
55,ola,59.5833,151.2833,13.32,60,100,11.16,RU,1699847665
56,adamstown,-25.066,-130.1015,73.02,86,99,19.71,PN,1699847431
57,ghat,24.9647,10.1728,62.96,34,0,5.97,LY,1699847708
58,albany,42.6001,-73.9662,28.72,81,0,3.22,US,1699847554
59,whitehorse,60.7161,-135.0538,25.57,80,100,8.05,CA,1699847666
60,salumbar,24.1333,74.05,74.1,34,42,5.41,IN,1699847927
61,yelizovo,53.1873,158.3805,32.14,54,40,8.99,RU,1699847927
62,al wafrah,28.6392,47.9306,71.64,58,100,4.0,KW,1699847927
63,noumea,-22.2763,166.4572,78.78,57,24,20.71,NC,1699847862
64,carnarvon,-24.8667,113.6333,74.77,62,28,11.88,AU,1699847632
65,bryne,58.7354,5.6477,41.99,93,100,0.0,NO,1699847928
66,magadan,59.5667,150.8,13.17,59,100,8.08,RU,1699847928
67,howrah,22.5892,88.3103,78.8,69,15,9.22,IN,1699847928
68,broome,42.2506,-75.833,31.21,82,6,1.01,US,1699847928
69,mo i rana,66.3128,14.1428,19.87,68,21,3.44,NO,1699847849
70,kavaratti,10.5669,72.642,82.78,71,72,4.94,IN,1699847665
71,tiksi,71.6872,128.8694,1.22,90,78,13.33,RU,1699847635
72,astrakhan,46.3497,48.0408,51.67,76,75,7.0,RU,1699847929
73,invercargill,-46.4,168.35,53.02,89,100,8.01,NZ,1699847559
74,callao,-12.0667,-77.15,69.71,77,100,13.8,PE,1699847929
75,garachico,28.7781,-17.7646,71.49,78,20,8.05,ES,1699847929
76,hilo,19.7297,-155.09,74.93,90,100,1.01,US,1699847929
77,virginia,37.5481,-77.4467,39.34,88,0,0.0,US,1699847930
78,bethanie,-26.4833,17.15,64.49,18,0,0.09,NA,1699847930
79,korla,41.7597,86.1469,43.45,55,79,0.85,CN,1699847930
80,agat village,13.3886,144.6585,90.54,78,40,17.27,GU,1699847930
81,vilyuchinsk,52.9306,158.4028,32.27,72,43,4.23,RU,1699847664
82,blackmans bay,-43.0167,147.3167,69.93,36,2,5.26,AU,1699847559
83,cockburn town,21.4612,-71.1419,83.07,76,3,20.51,TC,1699847930
84,jamestown,42.097,-79.2353,37.04,76,0,1.99,US,1699847431
85,yellowknife,62.456,-114.3525,18.41,95,75,19.57,CA,1699847545
86,knysna,-34.0363,23.0471,56.62,71,1,3.85,ZA,1699847931
87,howard springs,-12.497,131.047,90.88,59,47,7.45,AU,1699847872
88,ust-nera,64.5667,143.2,-11.27,99,99,3.11,RU,1699847646
89,santa terezinha,-29.9002,-50.0904,69.46,98,100,13.89,BR,1699847931
90,khost,33.3395,69.9204,61.36,33,0,0.22,AF,1699847931
91,isafjordur,66.0755,-23.124,34.3,84,100,5.37,IS,1699847645
92,edinburgh of the seven seas,-37.0676,-12.3116,57.83,81,54,24.52,SH,1699847643
93,sandnessjoen,66.0217,12.6316,18.12,69,14,12.95,NO,1699847639
94,morris,40.8334,-74.5329,38.08,79,0,0.0,US,1699847932
95,abalak,58.1286,68.5944,30.34,95,57,4.7,RU,1699847932
96,vikulovo,56.8167,70.6107,35.96,92,98,7.56,RU,1699847932
97,udachny,66.4167,112.4,10.45,84,100,8.14,RU,1699847663
98,tamanrasset,22.785,5.5228,58.91,20,0,4.61,DZ,1699847706
99,northam,51.0333,-4.2167,58.24,98,100,28.32,GB,1699847682
100,uturoa,-16.7333,-151.4333,81.57,76,67,4.29,PF,1699847649
101,katsuura,35.1333,140.3,51.37,69,94,16.58,JP,1699847664
102,kuta,-8.7233,115.1723,86.0,79,40,5.01,ID,1699847933
103,opuwo,-18.0607,13.84,72.82,36,64,3.78,NA,1699847933
104,lebu,-37.6167,-73.65,46.31,74,0,13.98,CL,1699847592
105,arecibo,18.4724,-66.7157,81.27,89,7,8.81,PR,1699847933
106,guerrero negro,27.9769,-114.0611,66.83,64,0,9.89,MX,1699847673
107,semey,50.4111,80.2275,39.42,81,75,13.42,KZ,1699847933
108,thompson,55.7435,-97.8558,28.56,100,100,2.3,CA,1699847652
109,tidjikja,18.5564,-11.4271,75.63,14,7,8.46,MR,1699847706
110,klyuchi,52.2667,79.1667,40.46,81,97,11.05,RU,1699847427
111,tocopilla,-22.092,-70.1979,65.3,75,22,6.91,CL,1699847935
112,melfort,52.8667,-104.6177,33.93,69,1,10.36,CA,1699847935
113,luau,-10.7073,22.2247,65.37,93,100,1.92,AO,1699847935
114,kharhial,20.2833,82.7667,78.26,55,75,3.94,IN,1699847936
115,hadibu,12.65,54.0333,80.58,82,55,13.02,YE,1699847584
116,nova vicosa,-17.8919,-39.3719,75.69,84,1,14.94,BR,1699847936
117,flying fish cove,-10.4217,105.6791,82.08,69,40,13.8,CX,1699847723
118,kuybyshev,55.4475,78.3218,34.88,97,100,8.21,RU,1699847936
119,kolonia town,6.964,158.206,84.33,70,100,12.84,FM,1699847936
120,crane,31.3974,-102.3501,57.2,80,100,8.86,US,1699847936
121,vorgashor,67.5833,63.95,13.03,97,95,6.04,RU,1699847651
122,kalamata,37.0389,22.1142,63.1,91,75,6.91,GR,1699847937
123,acarau,-2.8856,-40.12,78.28,78,0,13.29,BR,1699847937
124,revelstoke,50.9832,-118.2023,35.62,100,100,2.3,CA,1699847937
125,gemena,3.25,19.7667,69.26,99,50,0.98,CD,1699847937
126,aswan,24.0934,32.907,76.3,60,0,5.75,EG,1699847937
127,dudinka,69.4058,86.1778,27.68,96,100,11.99,RU,1699847638
128,ancud,-41.8697,-73.8203,47.8,84,92,11.21,CL,1699847636
129,chania,35.5122,24.0156,67.6,68,20,0.0,GR,1699847938
130,kikwit,-5.041,18.8162,68.58,95,100,1.88,CD,1699847850
131,san jose iturbide,21.0,-100.3833,57.67,87,61,5.44,MX,1699847667
132,revda,56.801,59.9303,33.4,85,100,3.36,RU,1699847683
133,island harbour,50.724,-1.2758,58.93,94,100,11.01,GB,1699847681
134,newman,37.3138,-121.0208,62.94,39,96,5.41,US,1699847504
135,port elizabeth,-33.918,25.5701,59.29,79,0,11.5,ZA,1699847455
136,castillos,-34.1667,-53.8333,59.49,91,67,7.34,UY,1699847669
137,tadine,-21.55,167.8833,74.08,56,44,20.36,NC,1699847939
138,east london,-33.0153,27.9116,58.14,77,0,8.05,ZA,1699847653
139,san patricio,28.017,-97.5169,63.84,97,100,12.53,US,1699847667
140,kani keli,-12.9536,45.1033,83.46,73,5,4.94,YT,1699847939
141,anacapri,40.5558,14.2136,56.21,94,29,11.92,IT,1699847939
142,nyakabindi,-2.6333,33.9833,66.83,81,27,4.09,TZ,1699847939
143,prince rupert,54.3161,-130.3201,46.09,73,100,8.05,CA,1699847939
144,saint-francois,46.4154,3.9054,55.65,94,100,5.75,FR,1699847940
145,timimoun,29.2639,0.231,59.38,38,0,5.75,DZ,1699847940
146,nagqu,31.5,92.0,22.37,25,4,6.13,CN,1699847726
147,mili,6.0815,171.735,83.7,80,100,18.68,MH,1699847940
148,shakawe,-18.3667,21.85,76.84,28,18,2.53,BW,1699847680
149,lihue,21.9789,-159.3672,81.64,75,75,17.27,US,1699847660
150,lubang,13.8584,120.124,84.83,75,69,19.42,PH,1699847806
151,waingapu,-9.6567,120.2641,86.99,66,57,10.42,ID,1699847714
152,chibougamau,49.9168,-74.3659,20.82,93,100,6.91,CA,1699847644
153,wailua homesteads,22.0669,-159.378,81.03,81,75,17.27,US,1699847661
154,saint-pierre,-21.3393,55.4781,78.57,57,0,5.75,RE,1699847941
155,badger,64.8,-147.5333,11.35,85,20,0.0,US,1699847640
156,bel ombre,-4.6167,55.4167,80.44,83,20,2.3,SC,1699847903
157,hermanus,-34.4187,19.2345,57.25,87,14,9.95,ZA,1699847656
158,nova sintra,14.8667,-24.7167,73.83,67,53,6.78,CV,1699847585
159,bubaque,11.2833,-15.8333,82.63,65,10,7.65,GW,1699847547
160,greymouth,-42.4667,171.2,58.82,85,100,10.45,NZ,1699847941
161,benguela,-12.5763,13.4055,79.11,77,100,3.98,AO,1699847695
162,laojunmiao,39.8333,97.7333,38.97,27,80,6.82,CN,1699847661
163,luanco,43.6152,-5.7934,67.48,82,82,8.57,ES,1699847942
164,tamandare,-8.7597,-35.1047,73.6,81,8,3.02,BR,1699847942
165,cill airne,52.05,-9.5167,49.08,86,97,29.04,IE,1699847942
166,mount pearl,47.5166,-52.7813,28.96,81,100,11.5,CA,1699847636
167,zeya,53.75,127.2667,25.48,42,22,8.05,RU,1699847943
168,corinto,37.9407,22.9573,61.9,94,100,5.5,GR,1699847943
169,waddan,29.1614,16.139,62.91,80,0,1.48,LY,1699847943
170,constantia,44.1833,28.65,39.88,51,100,3.76,RO,1699847646
171,arenapolis,-14.4503,-56.8461,84.15,52,56,5.23,BR,1699847944
172,borger,52.9233,6.7931,40.78,95,86,6.58,NL,1699847944
173,isangel,-19.55,169.2667,78.91,73,75,10.36,VU,1699847944
174,worland,44.0169,-107.9554,43.68,44,0,4.61,US,1699847944
175,santo antonio,-6.3106,-35.4789,70.97,86,1,5.7,BR,1699847944
176,port mathurin,-19.6833,63.4167,77.31,78,0,4.5,MU,1699847640
177,ifakara,-8.1333,36.6833,74.46,91,99,0.76,TZ,1699847945
178,arno,60.1167,18.6333,37.78,97,100,11.12,SE,1699847945
179,sinabang,2.4803,96.3801,82.81,77,76,3.18,ID,1699847557
180,mutuali,-14.8706,37.0044,77.32,65,74,4.23,MZ,1699847945
181,iglino,54.8324,56.4126,37.49,75,100,14.05,RU,1699847945
182,rehoboth,-23.3167,17.0833,70.48,44,11,4.36,NA,1699847946
183,holualoa,19.6228,-155.9522,76.84,85,75,9.22,US,1699847637
184,piti village,13.4626,144.6933,90.48,78,40,17.27,GU,1699847946
185,hasaki,35.7333,140.8333,57.6,61,99,17.67,JP,1699847634
186,colonia,50.9333,6.95,47.43,89,100,5.75,DE,1699847643
187,dompu,-8.5356,118.4622,92.16,53,88,6.85,ID,1699847946
188,brookings,44.3114,-96.7984,41.09,63,0,5.75,US,1699847947
189,midvagur,62.0511,-7.1939,43.63,81,75,16.11,FO,1699847947
190,tiquipaya,-17.3382,-66.2189,68.72,39,75,5.75,BO,1699847947
191,la ronge,55.1001,-105.2842,30.45,86,75,5.75,CA,1699847725
192,mount isa,-20.7333,139.5,100.17,20,6,13.8,AU,1699847905
193,buka,40.8108,69.1986,48.04,44,93,1.92,UZ,1699847947
194,letlhakeng,-24.0944,25.0298,74.43,47,28,7.4,BW,1699847947
195,lisala,2.15,21.5167,67.68,100,86,1.68,CD,1699847948
196,port blair,11.6667,92.75,80.64,83,75,4.61,IN,1699847948
197,yoloten,37.2989,62.3597,53.98,27,0,10.49,TM,1699847948
198,ceeldheer,3.8488,47.1806,81.7,76,88,4.36,SO,1699847948
199,bardai,11.65,7.2333,68.14,23,23,9.4,NG,1699847948
200,val-d'or,48.1002,-77.7828,24.89,93,100,10.36,CA,1699847945
201,itaituba,-4.2761,-55.9836,80.01,62,18,1.48,BR,1699847949
202,bikenibeu village,1.3673,173.1241,85.96,79,75,3.44,KI,1699847660
203,kamiiso,41.8167,140.65,39.58,60,75,17.27,JP,1699847949
204,enewetak,11.3474,162.3373,81.73,81,100,15.5,MH,1699847351
205,kismayo,-0.3582,42.5454,81.14,80,82,5.91,SO,1699847830
206,inarajan village,13.2736,144.7484,90.57,83,24,18.03,GU,1699847949
207,nuuk,64.1835,-51.7216,21.81,79,11,12.66,GL,1699847395
208,hobyo,5.3505,48.5268,81.23,80,100,9.86,SO,1699847697
209,pacasmayo,-7.4006,-79.5714,66.74,84,4,13.65,PE,1699847950
210,port alberni,49.2413,-124.8028,48.04,94,100,5.01,CA,1699847950
211,mermoz boabab,14.7065,-17.4758,78.58,83,0,9.22,SN,1699847950
212,merida,20.9667,-89.6167,79.02,85,47,13.0,MX,1699847930
213,benjamin constant,-4.3831,-70.0311,77.13,90,50,0.92,BR,1699847951
214,goundam,16.4145,-3.6708,76.08,11,1,10.09,ML,1699847951
215,chui,-33.6971,-53.4616,59.61,93,75,6.15,UY,1699847698
216,richards bay,-28.783,32.0377,66.25,81,98,6.35,ZA,1699847951
217,alice springs,-23.7,133.8833,96.35,21,86,10.36,AU,1699847684
218,poxoreo,-15.8372,-54.3892,75.2,47,18,4.7,BR,1699847952
219,touba,8.2833,-7.6833,73.54,90,89,2.8,CI,1699847952
220,mancio lima,-7.6142,-72.8958,82.47,83,0,0.0,BR,1699847952
221,mumford,5.2618,-0.759,79.32,87,40,7.36,GH,1699847952
222,kerikeri,-35.2268,173.9474,66.74,53,31,8.59,NZ,1699847546
223,santo domingo,18.5001,-69.9886,76.68,100,20,0.0,DO,1699847662
224,namibe,-15.1961,12.1522,72.14,76,78,2.73,AO,1699847953
225,khandyga,62.6667,135.6,-4.07,93,100,1.54,RU,1699847289
226,caucete,-31.6518,-68.2811,54.52,29,0,7.11,AR,1699847953
227,nguigmi,14.2495,13.1092,75.63,21,11,11.83,NE,1699847646
228,college,64.8569,-147.8028,11.44,82,20,0.0,US,1699847553
229,dongola,19.1667,30.4833,77.45,50,60,6.91,SD,1699847954
230,lompoc,34.6391,-120.4579,60.58,82,0,5.75,US,1699847707
231,kindia,10.0569,-12.8658,70.61,92,37,2.01,GN,1699847954
232,puerto san jose,13.9256,-90.8244,78.91,87,11,5.28,GT,1699847954
233,hassi messaoud,31.6804,6.0729,55.26,58,0,2.3,DZ,1699847954
234,portel,-1.9356,-50.8211,78.35,67,5,6.08,BR,1699847955
235,port alfred,-33.5906,26.891,58.17,86,83,1.99,ZA,1699847654
236,dunedin,-45.8742,170.5036,61.32,72,100,5.03,NZ,1699847681
237,barabinsk,55.3571,78.357,35.19,97,100,8.41,RU,1699847955
238,qaqortoq,60.7167,-46.0333,16.0,91,26,2.35,GL,1699847652
239,boende,-0.2167,20.8667,68.04,99,98,0.85,CD,1699847955
240,sapele,5.8941,5.6767,76.35,95,99,1.25,NG,1699847955
241,yuzhno-kurilsk,44.0306,145.8556,36.37,80,81,4.25,RU,1699847956
242,kalmunai,7.4167,81.8167,78.26,89,100,8.59,LK,1699847637
243,georgetown,5.4112,100.3354,90.95,72,20,6.91,MY,1699847488
244,sarupathar,26.1984,93.8094,76.48,66,3,4.05,IN,1699847956
245,minas de marcona,-15.2119,-75.1103,57.9,91,90,13.42,PE,1699847371
246,eyl,7.9803,49.8164,81.7,74,98,17.0,SO,1699847797
247,lata,40.1629,-8.3327,62.08,96,67,3.96,PT,1699847603
248,tera,14.0078,0.7531,77.23,16,99,10.04,NE,1699847958
249,valparaiso,-33.0393,-71.6273,55.04,66,75,4.61,CL,1699847715
250,ribeira brava,32.65,-17.0667,70.43,80,32,2.24,PT,1699847662
251,la sarre,48.8002,-79.1996,28.98,90,94,11.5,CA,1699847958
252,kyabe,9.4515,18.9449,74.66,86,100,1.14,TD,1699847958
253,peace river,56.2501,-117.286,28.71,93,75,6.91,CA,1699847890
254,canutama,-6.5339,-64.3831,77.0,77,48,1.74,BR,1699847959
255,griffith,41.5284,-87.4237,48.88,61,0,10.36,US,1699847959
256,formosa,-26.1775,-58.1781,76.98,78,100,11.5,AR,1699847959
257,ylitornio,66.3089,23.6773,9.79,97,100,5.21,FI,1699847959
258,quesnel,52.9999,-122.5029,43.3,49,100,9.22,CA,1699847959
259,mossel bay,-34.1831,22.146,51.73,75,2,4.12,ZA,1699847960
260,dakhla,23.6848,-15.958,71.4,49,25,9.08,EH,1699847960
261,itoman,26.1247,127.6694,71.98,53,40,27.63,JP,1699847720
262,al jawf,29.5,38.75,70.41,43,99,1.36,SA,1699847960
263,tangalle,6.024,80.7911,82.56,90,100,4.18,LK,1699847960
264,arraial do cabo,-22.9661,-42.0278,75.18,88,93,5.41,BR,1699847668
265,canet de mar,41.5905,2.5812,67.35,64,65,5.1,ES,1699847961
266,las tablas,7.7667,-80.2833,77.86,90,100,2.26,PA,1699847961
267,sabang,5.8933,95.3214,82.58,76,88,13.29,ID,1699847658
268,st. john's,47.5649,-52.7093,29.79,81,100,11.5,CA,1699847645
269,huarmey,-10.0681,-78.1522,67.6,83,66,10.0,PE,1699847609
270,kedougou,12.5579,-12.1743,75.38,39,29,1.07,SN,1699847962
271,rikaze,29.25,88.8833,41.18,11,0,1.36,CN,1699847659
272,sydney mines,46.2367,-60.2177,37.8,77,100,10.36,CA,1699847962
273,chemin grenier,-20.4872,57.4656,71.19,65,0,3.78,MU,1699847962
274,gornopravdinsk,60.05,69.9,29.37,96,96,4.81,RU,1699847962
275,as samawah,31.332,45.2944,72.52,36,92,2.48,IQ,1699847962
276,ubinskoye,55.3068,79.6802,34.57,98,100,7.74,RU,1699847963
277,ashland,40.8167,-82.2665,36.21,93,0,6.24,US,1699847963
278,new norfolk,-42.7826,147.0587,71.1,32,15,10.67,AU,1699847963
279,keflavik,64.0049,-22.5624,39.11,70,0,18.41,IS,1699847601
280,tofol,5.3248,163.0078,82.18,78,100,11.5,FM,1699847963
281,flin flon,54.7682,-101.865,31.06,84,100,12.01,CA,1699847444
282,lahij,13.1667,44.5833,75.69,67,69,4.29,YE,1699847964
283,cole harbour,44.6724,-63.4751,31.98,87,45,1.99,CA,1699847964
284,vilyuysk,63.7553,121.6247,1.0,94,70,4.0,RU,1699847964
285,shahrak,34.1074,64.3052,43.81,34,0,1.9,AF,1699847964
286,puerto ayora,-0.7393,-90.3518,76.55,92,77,8.01,EC,1699847651
287,fortuna,40.5982,-124.1573,56.93,83,0,5.99,US,1699847656
288,happy valley-goose bay,53.3168,-60.3315,26.91,68,75,12.66,CA,1699847696
289,usinsk,65.9939,57.5281,5.07,100,96,5.01,RU,1699847965
290,polyarnyy,69.1989,33.4478,14.52,95,93,9.8,RU,1699847701
291,niafunke,15.9322,-3.9906,77.16,11,12,11.81,ML,1699847838
292,alpine,32.835,-116.7664,63.05,33,96,5.21,US,1699847965
293,lafia,8.4833,8.5167,77.54,70,100,2.57,NG,1699847966
294,natal,-5.795,-35.2094,75.42,83,20,6.91,BR,1699847966
295,saint-philippe,-21.3585,55.7679,75.11,79,67,4.61,RE,1699847640
296,port douglas,-16.4833,145.4667,79.34,61,44,11.34,AU,1699847949
297,quatre cocos,-20.2078,57.7625,80.1,65,1,4.9,MU,1699847966
298,aras-asan,8.8908,126.3033,86.43,68,34,8.39,PH,1699847966
299,beinamar,8.6698,15.3813,73.09,88,100,4.29,TD,1699847967
300,itabira,-19.6192,-43.2269,69.21,57,26,0.56,BR,1699847967
301,petropavlovsk-kamchatsky,53.0452,158.6483,30.79,74,40,28.01,RU,1699847658
302,bayanhongor,46.7167,100.1167,13.33,47,1,1.61,MN,1699847967
303,kingscliff,-28.2667,153.5667,80.76,73,100,14.97,AU,1699847967
304,tarauaca,-8.1614,-70.7656,77.27,83,19,2.53,BR,1699847968
305,mukalla,14.5425,49.1242,80.65,61,7,1.92,YE,1699847968
306,olonkinbyen,70.9221,-8.7187,26.24,67,100,5.75,SJ,1699847668
307,susuman,62.7833,148.1667,-18.69,97,92,0.92,RU,1699847642
308,kodiak,57.79,-152.4072,29.71,80,40,3.44,US,1699847635
309,dolinsk,47.35,142.8,28.72,62,74,1.3,RU,1699847968
310,mangualde,40.6043,-7.7612,58.82,82,97,4.32,PT,1699847969
311,haiku-pauwela,20.9219,-156.3051,77.02,74,40,21.85,US,1699847859
312,port hedland,-20.3167,118.5667,87.85,51,14,17.27,AU,1699847635
313,maceio,-9.6658,-35.7353,71.04,100,0,3.44,BR,1699847695
314,zaragoza,41.6561,-0.8773,64.49,81,0,4.0,ES,1699847969
315,wuhai,39.6647,106.8122,38.5,16,55,6.58,CN,1699847970
316,nebraska city,40.6767,-95.8592,55.04,40,0,5.75,US,1699847970
317,nalundan,9.75,123.0667,84.72,68,26,8.48,PH,1699847970
318,verkhnevilyuysk,63.4453,120.3167,3.78,93,94,2.75,RU,1699847970
319,jiangyou,31.7667,104.7167,50.14,81,100,3.89,CN,1699847970
320,san luis de la loma,17.2706,-100.8939,79.97,84,52,5.21,MX,1699847669
321,abraveses,40.6814,-7.921,59.22,95,99,3.96,PT,1699847971
322,jiagedaqi,50.4167,124.1167,31.01,44,2,3.71,CN,1699847971
323,batesburg-leesville,33.9101,-81.5373,47.03,87,98,5.32,US,1699847971
324,tazovsky,67.4667,78.7,19.74,94,85,16.2,RU,1699847627
325,bovalino,38.149,16.174,66.34,77,32,9.53,IT,1699847693
326,vila velha,-20.3297,-40.2925,78.75,89,0,8.99,BR,1699847568
327,chhapar,27.8167,74.4,71.22,40,7,5.5,IN,1699847972
328,suluktu,39.9337,69.57,35.08,51,63,1.66,KG,1699847972
329,kayyerkan,69.3786,87.7439,24.3,100,100,12.1,RU,1699847972
330,coahuayana de hidalgo,18.7,-103.6583,77.76,89,78,3.31,MX,1699847972
331,toliara,-23.35,43.6667,75.99,70,0,2.37,MG,1699847972
332,vernon,50.2581,-119.2691,44.76,71,100,2.3,CA,1699847648
333,vadso,70.0744,29.7487,23.16,80,20,3.44,NO,1699847689
334,nar'yan-mar,67.6713,53.087,11.1,94,42,5.01,RU,1699847640
335,kavieng,-2.5744,150.7967,83.79,67,94,3.96,PG,1699847973
336,saint john,45.2727,-66.0677,25.83,86,0,6.91,CA,1699847804
337,goondiwindi,-28.55,150.3167,99.43,17,1,12.46,AU,1699847973
338,punta arenas,-53.15,-70.9167,48.31,61,75,16.11,CL,1699847665
339,kilindoni,-7.9139,39.6668,79.39,81,60,2.64,TZ,1699847974
340,jayrud,33.8074,36.7404,51.26,69,8,1.99,SY,1699847974
341,coyhaique,-45.5752,-72.0662,44.55,70,97,2.3,CL,1699847974
342,fale old settlement,-9.3852,-171.2468,84.94,68,57,3.36,TK,1699847669
343,kotwa,25.0167,81.3167,76.19,48,5,1.57,IN,1699847974
344,weno,7.4515,151.8468,83.5,70,45,10.38,FM,1699847625
345,kokopo,-4.352,152.2633,82.76,69,100,11.59,PG,1699847975
346,koudougou,12.25,-2.3667,75.63,14,70,6.82,BF,1699847975
347,lib,8.3122,167.3766,82.8,83,100,15.86,MH,1699847975
348,corner brook,48.9667,-57.9484,28.56,90,98,5.14,CA,1699847975
349,madera,37.1666,-119.8343,65.25,25,51,5.97,US,1699847709
350,cidade velha,14.9167,-23.6167,75.67,83,0,10.36,CV,1699847975
351,nuku'alofa,-21.1333,-175.2,70.14,94,100,11.5,TO,1699847710
352,puerto rico,-26.796,-55.024,78.03,75,34,2.55,AR,1699847882
353,caohe,30.2297,115.4335,48.11,57,98,3.83,CN,1699847976
354,mitu,1.1983,-70.1733,73.15,99,78,2.66,CO,1699847976
355,geraldton,-28.7667,114.6,81.01,47,0,12.66,AU,1699847670
356,green river,41.5286,-109.4662,41.4,54,46,1.99,US,1699847976
357,villa regina,-39.1,-67.0667,54.99,15,0,4.0,AR,1699847977
358,carauari,-4.8828,-66.8958,78.33,79,48,2.06,BR,1699847977
359,arkhangel'sk,64.5401,40.5433,20.12,90,68,11.03,RU,1699847929
360,nishinoomote,30.7333,131.0,59.56,47,40,18.41,JP,1699847977
361,belaya kholunitsa,58.84,50.8528,33.3,97,100,13.09,RU,1699847977
362,kendari,-3.945,122.4989,92.93,46,47,7.87,ID,1699847690
363,okha,53.5739,142.9478,26.8,78,99,12.8,RU,1699847978
364,robore,-18.3333,-59.75,85.26,51,3,8.55,BO,1699847978
365,elverum,60.8819,11.5623,7.48,98,76,3.51,NO,1699847978
366,hinche,19.15,-72.0167,74.25,85,36,1.95,HT,1699847978
367,akoupe,6.39,-3.9003,73.27,99,98,2.08,CI,1699847978
368,saynshand,44.8824,110.1163,27.68,43,7,9.53,MN,1699847979
369,hotan,37.0997,79.9269,46.71,21,1,1.12,CN,1699847979
370,vila franca do campo,37.7167,-25.4333,68.41,99,84,13.06,PT,1699847658
371,yeraliyev,43.2,51.65,52.99,42,24,21.74,KZ,1699847980
372,kiunga,-6.1219,141.2906,95.38,40,33,2.37,PG,1699847981
373,qarauyl,48.9451,79.255,37.11,67,97,14.16,KZ,1699847681
374,redencao,-4.2258,-38.7306,76.48,81,46,4.56,BR,1699847981
375,chonchi,-42.6128,-73.8092,45.12,89,98,4.07,CL,1699847691
376,berezovyy,51.6667,135.7,22.75,48,78,1.9,RU,1699847678
377,dzilam gonzalez,21.2833,-88.9333,75.63,87,76,6.71,MX,1699847981
378,stephenville,32.2207,-98.2023,55.53,86,75,0.0,US,1699847968
379,talcahuano,-36.7167,-73.1167,47.88,71,0,8.05,CL,1699847724
380,ujae,8.9322,165.7642,82.06,84,99,17.83,MH,1699847982
381,paracuru,-3.41,-39.0306,81.1,82,10,9.84,BR,1699847712
382,praia da vitoria,38.7333,-27.0667,62.85,82,75,2.98,PT,1699847682
383,al bawiti,28.3492,28.8659,66.07,89,0,6.06,EG,1699847982
384,taro,-8.3862,115.28,78.85,52,43,5.23,ID,1699847711
385,coari,-4.085,-63.1414,77.31,83,28,2.39,BR,1699847667
386,ar raqqah,35.95,39.0167,63.41,56,34,4.45,SY,1699847983
387,leava,-14.3,-178.1667,82.69,85,87,16.75,WF,1699847983
388,rhinelander,45.6366,-89.4121,44.31,77,0,9.08,US,1699847983
389,kerouane,9.2667,-9.0167,72.19,78,38,3.02,GN,1699847983
390,talnakh,69.4865,88.3972,24.21,97,100,6.42,RU,1699847645
391,pamplona,42.8169,-1.6432,50.99,93,60,2.3,ES,1699847984
392,i-n-salah,27.1935,2.4607,67.87,35,18,11.1,DZ,1699847648
393,menaka,15.9182,2.4022,75.74,14,2,9.17,ML,1699847984
394,yantai,37.5333,121.4,46.26,48,20,13.15,CN,1699847984
395,timmins,48.4669,-81.3331,33.62,93,100,13.8,CA,1699847984
396,novyy urgal,51.0736,132.5642,16.05,69,86,1.41,RU,1699847984
397,burley,42.5357,-113.7928,44.56,39,0,5.75,US,1699847947
398,altamira,-3.2033,-52.2064,78.21,63,55,3.18,BR,1699847842
399,lome,6.1375,1.2123,82.56,83,40,8.05,TG,1699847985
400,konarka,19.9,86.1167,79.2,55,72,11.7,IN,1699847985
401,bhadrakh,21.0528,86.52,82.22,48,49,7.34,IN,1699847825
402,creel,27.75,-107.6333,43.61,88,30,4.63,MX,1699847985
403,sao paulo de olivenca,-3.3783,-68.8725,73.65,98,23,1.59,BR,1699847986
404,federal,-30.9547,-58.7833,65.08,96,88,12.95,AR,1699847986
405,hamilton,39.1834,-84.5333,46.78,72,0,1.01,US,1699847397
406,murun-kuren,49.6342,100.1625,22.03,36,14,3.47,MN,1699847701
407,san julian,21.0167,-102.1667,62.19,61,52,3.96,MX,1699847694
408,ixtapa,20.7,-105.2,74.98,91,94,2.64,MX,1699847894
409,letterkenny,54.95,-7.7333,48.25,96,100,11.65,IE,1699847987
410,puerto deseado,-47.7503,-65.8938,48.2,60,0,15.59,AR,1699847672
411,port moresby,-9.4431,147.1797,87.22,55,40,17.27,PG,1699847987
412,sola,-13.8833,167.55,84.87,66,75,17.27,VU,1699847987
413,qarazhal,48.0078,70.7903,37.11,85,93,6.31,KZ,1699847987
414,sterling,39.0062,-77.4286,40.55,85,0,3.44,US,1699847564
415,saint-joseph,-21.3667,55.6167,74.1,77,36,4.14,RE,1699847687
416,mitchell,43.7094,-98.0298,45.93,43,0,7.72,US,1699847987
417,ust'-ilimsk,58.0006,102.6619,20.44,80,88,5.99,RU,1699847988
418,sarandi del yi,-33.35,-55.6333,60.39,78,87,14.58,UY,1699847988
419,ewo,-0.8725,14.8206,72.37,95,100,1.9,CG,1699847988
420,port saint john's,-31.6229,29.5448,61.81,70,0,6.85,ZA,1699847723
421,bamako,12.65,-8.0,63.01,67,50,3.44,ML,1699847711
422,fruitland,38.3221,-75.6202,41.0,87,0,0.0,US,1699847989
423,komsomol'skiy,43.9783,46.6985,50.92,95,61,7.4,RU,1699847989
424,egilsstadir,65.2653,-14.3948,31.91,93,20,8.05,IS,1699847587
425,saipan,15.1355,145.701,88.5,74,20,19.57,MP,1699847636
426,shizuishan,39.2333,106.7694,37.69,16,74,3.6,CN,1699847989
427,tanout,14.9709,8.8879,70.14,18,25,11.52,NE,1699847989
428,berdigestyakh,62.0989,126.6992,5.11,92,99,8.08,RU,1699847801
429,tobruk,32.0836,23.9764,68.14,73,2,5.32,LY,1699847990
430,an nuhud,12.7,28.4333,82.06,28,89,6.44,SD,1699847990
431,'ain el hadjar,34.7585,0.1453,42.13,36,0,5.68,DZ,1699847990
432,puerto aysen,-45.4,-72.7,41.56,99,100,5.68,CL,1699847990
433,cagli,43.5457,12.6527,53.94,66,0,13.8,IT,1699847990
434,fiambala,-27.6871,-67.6149,64.13,61,0,3.13,AR,1699847990
435,priozersk,61.0393,30.1291,36.0,87,100,18.37,RU,1699847991
436,jemna,33.5778,9.0147,63.28,61,9,8.99,TN,1699847991
437,melfi,40.9965,15.6514,45.5,90,26,1.7,IT,1699847849
438,rudsar,37.1376,50.288,57.18,59,56,5.64,IR,1699847991
439,bad sachsa,51.595,10.5555,39.7,94,74,2.93,DE,1699847991
440,yangambi,0.8102,24.4336,66.78,99,97,1.39,CD,1699847991
441,carbondale,37.7273,-89.2168,43.05,75,0,0.0,US,1699847991
442,ciudad lazaro cardenas,17.9583,-102.2,78.8,85,52,3.78,MX,1699847992
443,andergrove,-21.0833,149.1833,86.65,53,0,11.97,AU,1699847809
444,kroya,-7.6331,109.2461,85.5,68,57,10.4,ID,1699847992
445,sparta,43.9441,-90.8129,46.99,61,0,7.76,US,1699847992
446,santa ana,33.7456,-117.8678,71.53,38,20,5.75,US,1699847936
447,tucuma,-0.1833,-50.05,78.49,83,0,7.9,BR,1699847992
448,wellington,-41.2866,174.7756,64.06,82,40,27.63,NZ,1699847913
449,auki,-8.7676,160.7034,82.45,74,100,2.73,SB,1699847993
450,sisimiut,66.9395,-53.6735,13.41,85,53,7.16,GL,1699847993
451,pisco,-13.7,-76.2167,67.01,88,15,6.91,PE,1699847637
452,queenstown,-31.8976,26.8753,48.29,86,2,0.22,ZA,1699847722
453,mlimba,-8.8,35.8167,73.69,94,98,0.96,TZ,1699847993
454,port macquarie,-31.4333,152.9167,69.89,60,67,14.36,AU,1699847676
455,lwowek slaski,51.1107,15.5858,37.45,81,50,5.97,PL,1699847993
456,estevan,49.1334,-102.9842,34.14,74,0,8.05,CA,1699847994
457,ar ruways,24.1103,52.7306,81.18,60,8,7.56,AE,1699847994
458,mar del plata,-38.0023,-57.5575,51.87,75,0,4.61,AR,1699847463
459,anadyr,64.75,177.4833,28.9,86,75,13.42,RU,1699847657
460,cedro,-6.6067,-39.0622,75.15,62,0,2.84,BR,1699847994
461,upata,8.0086,-62.3989,75.2,95,12,3.91,VE,1699847994
462,gaalkacyo,6.7697,47.4308,78.57,77,19,11.18,SO,1699847995
463,ghadamis,30.1337,9.5007,61.2,39,0,5.23,LY,1699847995
464,road town,18.4167,-64.6167,82.49,71,8,20.27,VG,1699847865
465,ratnagiri,16.9833,73.3,85.44,53,51,8.25,IN,1699847995
466,minas,-34.3759,-55.2377,56.53,83,100,13.15,UY,1699847995
467,kapa'a,22.0752,-159.319,80.58,80,75,17.27,US,1699847683
468,kapuskasing,49.4169,-82.4331,33.89,100,100,18.41,CA,1699847668
469,cadale,2.7603,46.3222,82.8,72,58,3.96,SO,1699847996
470,tandalti,13.0167,31.8667,84.96,33,74,7.07,SD,1699847996
471,ocampo,21.65,-101.5,51.89,94,84,7.11,MX,1699847996
472,mezhdurechenskiy,59.6,65.9333,28.72,92,72,3.0,RU,1699847996
473,gadzhiyevo,69.2551,33.3362,13.6,96,96,9.46,RU,1699847638
474,suva,-18.1416,178.4415,74.68,94,75,10.36,FJ,1699847996
475,tomatlan,19.9333,-105.25,75.78,89,99,3.2,MX,1699847996
476,anshun,26.25,105.9333,43.9,80,100,6.31,CN,1699847997
477,vila do maio,15.1333,-23.2167,75.99,70,70,11.95,CV,1699847997
478,wangjing,24.6,94.0333,62.58,53,18,0.78,IN,1699847997
479,srandakan,-7.9386,110.2506,84.54,71,58,12.3,ID,1699847997
480,port sudan,19.6175,37.2164,82.54,75,7,0.49,SD,1699847997
481,tralee,52.2704,-9.7026,48.97,88,86,33.46,IE,1699847396
482,shimoda,34.6667,138.95,57.56,76,90,13.09,JP,1699847998
483,guatrache,-37.6678,-63.5302,48.87,21,0,0.98,AR,1699847998
484,atherton,53.5237,-2.4935,49.28,97,100,11.65,GB,1699847998
485,labytnangi,66.6572,66.4183,9.05,89,23,8.1,RU,1699847591
486,san fernando,15.0286,120.6898,87.53,55,97,9.78,PH,1699847998
487,remire-montjoly,4.9167,-52.2667,80.46,83,1,10.74,GF,1699847900
488,puerto baquerizo moreno,-0.9,-89.6,74.59,83,86,13.06,EC,1699847639
489,glace bay,46.1969,-59.957,36.97,78,100,11.99,CA,1699847999
490,yeppoon,-23.1333,150.7333,89.38,51,0,9.98,AU,1699847999
491,mwinilunga,-11.7358,24.4293,63.36,95,100,1.45,ZM,1699847999
492,sarpang,26.864,90.2674,79.84,36,0,3.98,BT,1699847999
493,zavodskoy,43.4597,132.2922,33.39,37,7,15.66,RU,1699848000
494,tolanaro,-25.0319,46.9987,68.07,88,0,0.0,MG,1699847674
495,luwuk,-0.9516,122.7875,87.94,64,29,5.68,ID,1699847666
496,ponta delgada,37.7333,-25.6667,68.72,94,75,9.22,PT,1699847726
497,horana south,6.7159,80.0626,81.03,81,100,1.52,LK,1699848000
498,jackson,42.4165,-122.8345,49.78,85,0,1.01,US,1699847703
499,aitape,-3.1374,142.3475,83.62,79,73,7.27,PG,1699848002
500,lethem,3.3803,-59.7968,82.65,58,36,9.42,GY,1699848005
501,pratt,37.6439,-98.7376,47.01,87,0,0.0,US,1699847830
502,suining,30.508,105.5733,50.18,84,100,1.68,CN,1699848010
503,makokou,0.5738,12.8642,70.03,100,100,1.79,GA,1699847673
504,mimizan,44.2006,-1.2289,55.49,76,80,8.37,FR,1699848011
505,norton,-17.8833,30.7,67.87,61,31,7.99,ZW,1699848012
506,tahe,52.3333,124.7333,30.47,32,0,9.48,CN,1699848013
507,riccione,44.0051,12.6447,48.81,91,67,5.75,IT,1699848014
508,hungnam,39.8317,127.6186,45.12,27,0,5.3,KP,1699848014
509,angaur state,6.906,134.13,84.43,74,90,12.8,PW,1699847717
510,tacotalpa,17.6,-92.8167,74.86,95,27,0.63,MX,1699848015
511,plettenberg bay,-34.0527,23.3716,56.5,71,3,4.72,ZA,1699848016
512,caconda,-13.7333,15.0667,61.43,87,99,3.24,AO,1699848011
513,boa vista,2.8197,-60.6733,82.38,65,0,8.05,BR,1699848018
514,garla-mare,44.2092,22.775,42.12,73,33,3.31,RO,1699848020
515,labrador city,52.9463,-66.9114,17.51,93,100,6.91,CA,1699847640
516,nyurba,63.2842,118.3319,8.19,90,100,3.98,RU,1699847686
517,razdol'noye,45.7708,33.4878,48.74,75,86,6.31,UA,1699848023
518,buenaventura,3.8801,-77.0312,76.08,97,99,0.87,CO,1699847688
519,preobrazheniye,42.9019,133.9064,34.12,40,75,9.1,RU,1699848023
520,gul'kevichi,45.3538,40.6946,53.24,76,100,6.38,RU,1699848024
521,kermit,31.8576,-103.0927,57.74,82,100,9.22,US,1699847782
522,horta,38.5333,-28.6333,62.02,86,100,7.0,PT,1699848024
523,ibarreta,-25.2144,-59.8585,81.1,72,92,5.39,AR,1699848026
524,kasempa,-13.4584,25.8338,63.88,90,89,2.73,ZM,1699848026
525,kingston,17.997,-76.7936,83.35,79,20,5.75,JM,1699847500
526,tete,-16.1564,33.5867,80.69,65,20,8.05,MZ,1699848027
527,bandarbeyla,9.4942,50.8122,80.83,81,98,17.31,SO,1699848028
528,ratne,51.6683,24.5303,41.83,78,90,10.87,UA,1699848028
529,stanovoye,52.7638,38.3582,39.29,96,100,19.33,RU,1699848028
530,uglegorsk,49.0833,142.0333,26.6,60,99,7.74,RU,1699848030
531,nogliki,51.8333,143.1667,23.34,68,54,15.01,RU,1699847688
532,bishoftu,8.75,38.9833,58.33,84,80,2.75,ET,1699848030
533,ta`u,-14.2336,-169.5144,82.53,77,26,7.14,AS,1699848032
534,farasan,16.7022,42.1183,84.47,74,93,11.5,SA,1699848032
535,mhamid,29.82,-5.72,66.27,35,14,1.3,MA,1699848033
536,rio preto da eva,-2.6994,-59.6997,79.48,71,18,2.98,BR,1699848033
537,izhevsk,56.85,53.2333,33.33,96,100,3.0,RU,1699848034
538,alaghsas,17.0187,8.0168,72.5,17,0,9.42,NE,1699848034
539,tura,25.5198,90.2201,78.64,56,0,1.34,IN,1699847419
540,sorsk,54.0033,90.2467,28.45,94,100,3.24,RU,1699848034
541,daru,-9.0763,143.2092,82.42,65,74,8.84,PG,1699847692
542,oroqen zizhiqi,50.5667,123.7167,31.12,35,3,3.62,CN,1699848035
543,segou,13.4317,-6.2157,75.34,13,14,7.9,ML,1699848035
544,laminusa,5.5549,120.9136,82.71,74,1,1.72,PH,1699848035
545,al kharijah,25.4514,30.5464,73.27,56,64,8.21,EG,1699848036
546,trenton,40.217,-74.7429,37.9,74,0,6.91,US,1699847748
547,arish,31.1316,33.7984,76.32,74,98,7.54,EG,1699848037
548,malpica,43.3228,-8.8105,68.16,76,97,21.81,ES,1699848038
549,baie-comeau,49.2168,-68.1489,29.88,74,100,5.75,CA,1699848008
550,pekan,3.4836,103.3996,86.11,76,99,4.05,MY,1699848040
551,tanumah,27.1,44.1333,71.37,32,100,4.47,SA,1699848041
552,tvoroyri,61.5556,-6.8111,47.21,81,100,25.59,FO,1699847836
553,kashgar,39.4547,75.9797,43.81,42,0,8.95,CN,1699848042
554,cruzeiro do sul,-29.5128,-51.9853,74.52,95,89,2.89,BR,1699848042
555,mount gambier,-37.8333,140.7667,64.72,44,33,10.51,AU,1699847669
556,mangrol,21.1167,70.1167,81.25,30,100,11.43,IN,1699848043
557,acapulco de juarez,16.8634,-99.8901,80.38,83,38,4.25,MX,1699847707
558,bandraboua,-12.7044,45.1223,83.88,73,6,6.78,YT,1699848044
559,beykonak,36.3257,30.303,67.06,75,100,2.08,TR,1699848044
560,la passe,45.5549,-0.8967,59.99,81,92,13.94,FR,1699847699
561,pico truncado,-46.7949,-67.9573,48.65,41,0,23.33,AR,1699848045
562,massawa,15.6097,39.45,83.59,68,58,1.63,ER,1699848045
563,red bluff,40.1785,-122.2358,58.51,62,0,0.0,US,1699848045
564,hammerfest,70.6634,23.6821,18.05,67,14,1.14,NO,1699848045
565,fisterra,42.9049,-9.2629,66.02,94,98,28.57,ES,1699847646
566,singkil,-7.9855,111.4161,92.21,49,42,6.38,ID,1699848046
567,jinghong,21.991,100.7341,80.69,66,57,3.11,CN,1699847666
568,tierra colorada,17.1667,-99.5833,75.54,90,53,2.77,MX,1699848046
569,xam nua,20.4197,104.0439,66.78,98,98,2.98,LA,1699848046
570,yakymivka,46.6897,35.1536,45.66,82,81,8.52,UA,1699848047
571,idri,27.5,13.2667,63.54,61,0,6.53,LY,1699848047
572,san antonio de pale,-1.4014,5.6325,79.18,83,47,9.62,GQ,1699847639
573,seminole,28.7086,-81.2081,71.1,90,95,1.99,US,1699848047
574,hami,42.8,93.45,43.5,23,43,1.21,CN,1699847691
575,lionel town,17.8101,-77.2406,84.09,82,12,5.93,JM,1699848047
576,punta del este,-34.9667,-54.95,57.96,72,75,11.5,UY,1699847663
577,san pedro de ycuamandiyu,-24.0917,-57.0764,92.57,38,83,8.63,PY,1699848048
578,el calafate,-50.3408,-72.2768,44.35,72,100,4.43,AR,1699847635
579,neiafu,-18.65,-173.9833,77.68,88,100,11.5,TO,1699848048
580,ciudad miguel aleman,26.35,-99.1,60.57,96,100,12.48,MX,1699848048
581,itapirapua,-15.8233,-50.6133,78.48,44,66,0.22,BR,1699848049
582,pangody,65.85,74.4859,17.06,87,13,20.18,RU,1699847607
583,quellon,-43.1167,-73.6167,45.95,85,100,11.59,CL,1699847917
584,bodo,67.28,14.405,29.44,64,0,19.57,NO,1699848050
585,bonthe,7.5264,-12.505,78.85,85,91,2.62,SL,1699848051
586,weilheim,47.8333,11.15,50.58,92,100,8.37,DE,1699848051
587,fallon,39.4735,-118.7774,39.07,41,0,4.61,US,1699848051
588,luganville,-15.5333,167.1667,78.6,75,100,14.94,VU,1699848052
589,wamba,8.9333,8.6,74.53,47,77,3.06,NG,1699848052
590,aykhal,66.0,111.5,9.18,94,99,9.31,RU,1699847673
591,badiyah,22.45,58.8,76.3,37,83,5.44,OM,1699848052
592,padang,-0.9492,100.3543,84.25,77,75,5.88,ID,1699847646
593,anloga,5.7947,0.8973,81.28,81,6,8.75,GH,1699848053
594,kimbe,-5.5502,150.1429,86.79,58,99,4.63,PG,1699848053
595,jabor,5.921,169.6434,83.41,82,100,14.38,MH,1699848053
596,dallas,32.7668,-96.7836,58.17,77,0,0.0,US,1699848023
597,yulinshi,38.2906,109.7494,36.46,25,100,8.75,CN,1699848054
598,mendi,-6.1761,143.6513,70.86,52,32,9.24,PG,1699848054
599,munsan,37.8594,126.785,41.81,29,0,8.3,KR,1699848054
600,pacific grove,36.6177,-121.9166,58.17,88,40,0.0,US,1699847650
601,maun,-19.9833,23.4167,78.73,27,70,2.93,BW,1699847654
602,aqadyr,48.2553,72.8483,33.76,97,100,9.26,KZ,1699848055
603,ouro sogui,15.6,-13.3167,77.02,44,0,0.0,SN,1699848055
604,dodoma,-6.1722,35.7395,67.91,88,40,9.22,TZ,1699848055
605,sittwe,20.15,92.9,82.36,71,84,2.44,MM,1699847649
606,sal rei,16.1833,-22.9167,77.58,73,89,13.18,CV,1699848056
